id,default_airport_code,country_code,country_name,continent_name,longitude,latitude,city_name
30000016,ADE,YE,Yemen,Asia Minor,45.0299987792969,12.789999961853,Aden
30001601,SAH,YE,Yemen,Asia Minor,44.2074546813965,15.3520288467407,Sanaa
30000134,GYD,AZ,Azerbaijan,Asia,49.860000610351562,40.389999389648438,Baku
90486328,OMS,RU,Russia,Europe,73.3907318115234,54.975643157959,Omsk
30000065,AMM,JO,Jordan,Asia Minor,35.9300003051758,31.9500007629395,Amman
30000090,AQJ,JO,Jordan,Asia Minor,35.0072288513184,29.5234394073486,Aqaba
30000373,CGP,BD,Bangladesh,Asia,91.8099975585938,22.3299999237061,Chittagong
30000478,DAC,BD,Bangladesh,Asia,90.3899993896484,23.7000007629395,Dhaka
30000009,AUH,AE,United Arab Emirates,Asia Minor,54.3699989318848,24.4799995422363,Abu Dhabi
30000502,DXB,AE,United Arab Emirates,Asia Minor,55.3116683959961,25.2644443511963,Dubai
30001655,SHJ,AE,United Arab Emirates,Asia Minor,55.4099998474121,25.3700008392334,Sharjah
90481848,KBL,AF,Afghanistan,Asia Minor,69.1699981689453,34.5299987792969,Kabul
30000488,DOH,QA,Qatar,Asia Minor,51.5099983215332,25.2999992370605,Doha
30000360,CJU,KR,South Korea,Asia,126.519996643066,33.5099983215332,Cheju
30001466,PUS,KR,South Korea,Asia,129.075637817383,35.1795501708984,Pusan
30001647,SEL,KR,South Korea,Asia,126.98999786377,37.560001373291,Seoul
30001753,TAE,KR,South Korea,Asia,128.600006103516,35.8699989318848,Taegu
30001985,RSU,KR,South Korea,Asia,127.73999786377,34.7400016784668,Yosu
30000087,AOJ,JP,Japan,Asia,140.66667175293,40.783332824707,Aomori
30000103,AKJ,JP,Japan,Asia,142.360000610352,43.7700004577637,Asahikawa
30000596,FUK,JP,Japan,Asia,130.401733398438,33.5903015136719,Fukuoka
30000723,HIW,JP,Japan,Asia,132.440002441406,34.3899993896484,Hiroshima
30000834,KOJ,JP,Japan,Asia,130.559997558594,31.5900001525879,Kagoshima
30000925,KMJ,JP,Japan,Asia,130.716659545898,32.7999992370605,Kumamoto
30001151,MSJ,JP,Japan,Asia,141.339996337891,40.6800003051758,Misawa
30001210,NGS,JP,Japan,Asia,129.880004882812,32.75,Nagasaki
30001211,NGO,JP,Japan,Asia,136.910003662109,35.1500015258789,Nagoya
30001296,OIT,JP,Japan,Asia,131.600006103516,33.25,Oita
30001297,OKJ,JP,Japan,Asia,133.933334350586,34.6500015258789,Okayama
30001298,OKA,JP,Japan,Asia,127.983390808105,26.4716281890869,Okinawa
30001312,OSA,JP,Japan,Asia,135.5,34.6800003051758,Osaka
30001628,SPK,JP,Japan,Asia,141.339996337891,43.060001373291,Sapporo
30001812,TYO,JP,Japan,Asia,139.77000427246094,35.669998168945312,Tokyo
30001021,LFW,TG,Togo,Africa,1.22291564941406,6.13065528869629,Lome
30000052,ALA,KZ,Kazakhstan,Asia,76.9166641235352,43.0666656494141,Almaty
90486331,KSN,KZ,Kazakhstan,Asia,63.6315002441406,53.2174987792969,Kostanay
90486341,PWQ,KZ,Kazakhstan,Asia,76.9671249389648,52.2729873657227,Pavlodar
90486342,KGF,KZ,Kazakhstan,Asia,73.1658554077148,49.8326683044434,Karaganda
90486344,TSE,KZ,Kazakhstan,Asia,71.4475021362305,51.1795997619629,Astana
30000174,BEY,LB,Lebanon,Asia Minor,35.5134048461914,33.8871879577637,Beirut
30000139,BWN,BN,Brunei Darussalam,Asia,114.949996,4.929999,Bandar Seri Begawan
30000695,HRB,CN,China,Asia,126.650001525879,45.75,Harbin
90498021,CGQ,CN,China,Asia,125.30330657959,43.8843460083008,Changchun
30000931,KWI,KW,Kuwait,Asia Minor,47.9900016784668,29.3799991607666,Kuwait
30000126,BCD,PH,Philippines,Asia,122.970001220703,10.6300001144409,Bacolod
30000285,BXU,PH,Philippines,Asia,125.519996643066,8.93000030517578,Butuan
30000333,CEB,PH,Philippines,Asia,123.885437011719,10.3156995773315,Cebu
30000457,DVO,PH,Philippines,Asia,125.629997253418,7.1100001335144,Davao
30000768,ILO,PH,Philippines,Asia,122.550003051758,10.689998626709,Iloilo
30000840,KLO,PH,Philippines,Asia,122.360000610352,11.710000038147,Kalibo
30001082,MNL,PH,Philippines,Asia,120.966667175293,14.5833330154419,Manila
30001458,PPS,PH,Philippines,Asia,118.73999786377,9.73999881744385,Puerto Princesa
30001587,SJI,PH,Philippines,Asia,120.98999786377,15.7899990081787,San Jose
90486359,CRK,PH,Philippines,Asia,120.591598510742,15.1442003250122,Angeles City
90486478,DIL,TL,Timor Leste,Asia,125.587997436523,-8.56618976593018,Dili
90486619,CGY,PH,Philippines,Asia,124.630340576172,8.48076438903809,Cagayan De Oro City
90486622,GES,PH,Philippines,Asia,125.082855224609,6.13369941711426,General Santos City
30001202,MCT,OM,Oman,Asia Minor,58.5400009155273,23.6100006103516,Muscat
90488835,SLL,OM,Oman,Asia Minor,54.0897216796875,17.019721984863281,Salalah
30000477,DHA,SA,Saudi Arabia,Asia Minor,50.132999420166,26.3040008544922,Dhahran
30000815,JED,SA,Saudi Arabia,Asia Minor,39.169998,21.5,Jeddah
30001118,MED,SA,Saudi Arabia,Asia Minor,39.6201896667481,24.4608993530273,Medinah
30001517,XXN,SA,Saudi Arabia,Asia Minor,46.7700004577637,24.6499996185303,Riyadh
90486379,DMM,SA,Saudi Arabia,Asia Minor,50.1464691162109,26.4009246826172,Dammam
30000443,DAD,VN,Vietnam,Asia,108.209999084473,16.0699996948242,Da Nang
30000692,HAN,VN,Vietnam,Asia,105.839996337891,21.0300006866455,Hanoi
30000724,SGN,VN,Vietnam,Asia,106.662498474121,10.7591800689697,Ho Chi Minh City
30000746,HUI,VN,Vietnam,Asia,107.580001831055,16.4799995422363,Hue
90483432,NHA,VN,Vietnam,Asia,109.183334350586,12.25,Nha Trang
30000743,HUN,TW,Taiwan,Asia,121.599998474121,24.0,Hualien
30000850,KHH,TW,Taiwan,Asia,120.269996643066,22.6299991607666,Kaohsiung
30001755,TSA,TW,Taiwan,Asia,121.449996948242,25.0200004577637,Taipei
30000283,BUZ,IR,Iran,Asia Minor,50.8300018310547,28.9200000762939,Bushehr
30001665,SYZ,IR,Iran,Asia Minor,52.5699996948242,29.6299991607666,Shiraz
30001777,THR,IR,Iran,Asia Minor,51.4300003051758,35.6699981689453,Tehran
90486378,MHD,IR,Iran,Asia Minor,59.5999984741211,36.2999992370605,Mashhad
90490012,TBZ,IR,Iran,Asia Minor,46.2899360656738,38.080696105957,Tabriz
90488653,LXA,CN,China,Asia,91.1408538818359,29.6455535888672,Lhasa
30000491,DOK,UA,Ukraine,Europe,37.8199996948242,48.0,Donetsk
30000881,HRK,UA,Ukraine,Europe,36.208309173583984,49.989669799804688,Kharkov
30000884,IEV,UA,Ukraine,Europe,30.5200004577637,50.4300003051758,Kiev
30001044,VSG,UA,Ukraine,Europe,39.3300018310547,48.5699996948242,Luhansk
30001050,LWO,UA,Ukraine,Europe,24.0297203063965,49.8396797180176,Lvov
30001292,ODS,UA,Ukraine,Europe,30.7299995422363,46.4700012207031,Odessa
30001671,SIP,UA,Ukraine,Europe,34.0999984741211,44.9500007629395,Simferopol
90486334,CWC,UA,Ukraine,Europe,25.9343891143799,48.2925415039062,Chernivtsi
90487400,DNK,UA,Ukraine,Europe,35.1378898620605,48.4228897094727,Dnepropetrovsk
30000002,AES,NO,Norway,Europe,6.14947986602783,62.4722290039062,Aalesund
30000058,ALF,NO,Norway,Europe,23.2700004577637,69.9800033569336,Alta
30000186,BGO,NO,Norway,Europe,5.3318510055542,60.3880729675293,Bergen
30000222,BOO,NO,Norway,Europe,14.3699998855591,67.2900009155273,Bodo
30000266,BNN,NO,Norway,Europe,12.2082138061523,65.47265625,Bronnoysund
30000571,FRO,NO,Norway,Europe,5.0288610458374,61.59912109375,Floro
30000689,HFT,NO,Norway,Europe,23.7099990844727,70.6800003051758,Hammerfest
30000699,NVK,NO,Norway,Europe,17.4200000762939,68.4499969482422,Harstad Narvik
30000703,HAU,NO,Norway,Europe,5.2699990272522,59.4199981689453,Haugesund
30000895,KKN,NO,Norway,Europe,30.0300006866455,69.7300033569336,Kirkenes
30000918,KRS,NO,Norway,Europe,7.98999881744385,58.1500015258789,Kristiansand
30000919,KSU,NO,Norway,Europe,7.76000022888184,63.1199989318848,Kristiansund
30000991,LKN,NO,Norway,Europe,13.6000003814697,68.1600036621094,Leknes
30001030,LYR,NO,Norway,Europe,15.6487503051758,78.2185897827148,Longyearbyen
30001158,MOL,NO,Norway,Europe,7.17999982833862,62.7400016784668,Molde
30001315,OSL,NO,Norway,Europe,10.75,59.9099998474121,Oslo
30001603,SDN,NO,Norway,Europe,6.21999883651733,61.7799987792969,Sandane
30001604,SSJ,NO,Norway,Europe,12.6086902618408,66.015998840332,Sandnessjoen
30001686,SOG,NO,Norway,Europe,6.30557203292847,58.3457107543945,Sogndal
30001724,SVG,NO,Norway,Europe,5.71000003814697,58.9700012207031,Stavanger
30001834,TOS,NO,Norway,Europe,18.9550838470459,69.6488952636719,Tromso
30001835,TRD,NO,Norway,Europe,10.399998664856,63.439998626709,Trondheim
30001872,VDS,NO,Norway,Europe,29.7512092590332,70.0818176269531,Vadso
90482105,ANX,NO,Norway,Europe,16.1100006103516,69.3199996948242,Andenes
90483932,SVJ,NO,Norway,Europe,14.5669527053833,68.235710144043,Svolvaer
90485929,RYG,NO,Norway,Europe,10.7281761169434,59.3976593017578,Rygge
90486105,BDU,NO,Norway,Europe,18.5288219451904,69.0731735229492,Bardufoss
90486458,HVG,NO,Norway,Europe,25.9830589294434,70.9760208129883,Honningsvag
90486459,VAW,NO,Norway,Europe,31.1065902709961,70.3698348999023,Vardo
90486460,BJF,NO,Norway,Europe,29.71484375,70.6339950561523,Batsfjord
90486461,VDB,NO,Norway,Europe,9.22695064544678,60.9827651977539,Fagernes
90486462,RRS,NO,Norway,Europe,11.3919525146484,62.5780487060547,Roros
90486463,FDE,NO,Norway,Europe,5.84386396408081,61.4519309997559,Forde
90486464,MEH,NO,Norway,Europe,27.8518524169922,71.0360946655273,Mehamn
90486465,SOJ,NO,Norway,Europe,21.9742012023926,69.946891784668,Sorkjosen
90486466,BVG,NO,Norway,Europe,29.0947647094727,70.8617630004883,Berlevag
90486468,HOV,NO,Norway,Europe,6.12720155715942,62.2028923034668,Orsta
90486469,SKN,NO,Norway,Europe,14.9054355621338,68.5630035400391,Stokmarknes
30001508,RIX,LV,Latvia,Europe,24.1299991607666,56.9700012207031,Riga
90485928,PLQ,LT,Lithuania,Europe,21.0715484619141,55.9208984375,Palanga
90486330,LPX,LV,Latvia,Europe,21.0115833282471,56.4893341064453,Liepaja
90486352,VNT,LV,Latvia,Europe,21.5926265716553,57.3949966430664,Ventspils
30000045,AHO,IT,Italy,Europe,8.3100004196167,40.5699996948242,Alghero
30000070,AOI,IT,Italy,Europe,13.51894474029541,43.615829467773438,Ancona
30000151,BRI,IT,Italy,Europe,16.869255065918,41.1260833740234,Bari
30000185,BGY,IT,Italy,Europe,9.66995239257812,45.6949043273926,Bergamo
30000226,BLQ,IT,Italy,Europe,11.3400001525879,44.5,Bologna
30000254,VBS,IT,Italy,Europe,10.2200002670288,45.5499992370605,Brescia
30000258,BDS,IT,Italy,Europe,17.930000305175781,40.639999389648438,Brindisi
30000288,CAG,IT,Italy,Europe,9.10922813415527,39.2154579162598,Cagliari
30000328,CTA,IT,Italy,Europe,15.0799999237061,37.5,Catania
30000533,EBA,IT,Italy,Europe,10.19273853302,42.7781867980957,Elba Island
30000567,FLR,IT,Italy,Europe,11.256870269775391,43.768718719482422,Florence
30000572,FRL,IT,Italy,Europe,12.0410223007202,44.222526550293,Forli
30000615,GOA,IT,Italy,Europe,8.93000030517578,44.4199981689453,Genoa
30000959,SUF,IT,Italy,Europe,16.2900009155273,38.9500007629395,Lamezia Terme
30000960,LMP,IT,Italy,Europe,12.6098165512085,35.5011138916016,Lampedusa
30001141,MIL,IT,Italy,Europe,9.1881256103515625,45.463672637939453,Milan
30001224,NAP,IT,Italy,Europe,14.251635551452637,40.840095520019531,Naples
30001300,OLB,IT,Italy,Europe,9.48685359954834,40.9225120544434,Olbia
30001333,PMO,IT,Italy,Europe,13.3599996566772,38.1199989318848,Palermo
30001344,PNL,IT,Italy,Europe,12.0,36.7799987792969,Pantelleria
30001376,PEG,IT,Italy,Europe,12.3891716003418,43.1107025146484,Perugia
30001377,PSR,IT,Italy,Europe,14.2140941619873,42.4648246765137,Pescara
30001390,PSA,IT,Italy,Europe,10.3999996185303,43.7200012207031,Pisa
30001494,REG,IT,Italy,Europe,15.6439332962036,38.1092910766602,Reggio Calabria
30001510,RMI,IT,Italy,Europe,12.5630693435669,44.0590553283691,Rimini
30001533,ROM,IT,Italy,Europe,12.4823226928711,41.8954658508301,Rome
30001826,TPS,IT,Italy,Europe,12.5178270339966,38.0171089172363,Trapani
30001830,TSF,IT,Italy,Europe,12.2431535720825,45.666919708252,Treviso
30001831,TRS,IT,Italy,Europe,13.7688541412354,45.649486541748,Trieste
30001847,TRN,IT,Italy,Europe,7.68686485290527,45.0703659057617,Turin
30001892,VCE,IT,Italy,Europe,12.3299999237061,45.4300003051758,Venice
30001896,VRN,IT,Italy,Europe,10.9927949905396,45.4386901855469,Verona
90482120,AOT,IT,Italy,Europe,7.31346130371094,45.7346115112305,Aosta
90482378,BZO,IT,Italy,Europe,11.358388900756836,46.496906280517578,Bolzano
90482689,CUF,IT,Italy,Europe,7.54711103439331,44.388801574707,Cuneo
90482822,FOG,IT,Italy,Europe,15.54469871521,41.4623336791992,Foggia
90483524,PMF,IT,Italy,Europe,10.3325147628784,44.8044471740723,Parme
90483948,TAR,IT,Italy,Europe,17.2400074005127,40.46923828125,Taranto
90484382,VNM,IT,Italy,Europe,7.60713911056519,43.7904167175293,Ventimiglia
90484447,ALL,IT,Italy,Europe,8.21495819091797,44.0484504699707,Albenga
90485054,TTB,IT,Italy,Europe,9.65784931182861,39.9266357421875,Tortolì
90486094,CRV,IT,Italy,Europe,17.1270790100098,39.080738067627,Crotone
30001065,SEZ,SC,Seychelles,Indian ocean islands,55.480396270752,-4.68266916275024,Mahe Island
30001439,PRI,SC,Seychelles,Indian ocean islands,55.7467269897461,-4.33259057998657,Praslin Island
30001979,YAP,FM,Micronesia,Australia and oceania,142.0,9.0,Yap
30000012,ACC,GH,Ghana,Africa,-0.200000002980232,5.55999994277954,Accra
30000010,ABS,EG,Egypt,Asia Minor,31.595100402832,22.346700668335,Abu Simbel
30000043,ALY,EG,Egypt,Asia Minor,29.9500007629395,31.2199993133545,Alexandria
30000108,ASW,EG,Egypt,Asia Minor,32.919998,24.08,Aswan
30000291,CAI,EG,Egypt,Asia Minor,31.25,30.0599994659424,Cairo
30000750,HRG,EG,Egypt,Asia Minor,33.830001,27.229999,Hurghada
30001049,LXR,EG,Egypt,Asia Minor,32.6500015258789,25.7000007629395,Luxor
30001656,SSH,EG,Egypt,Asia Minor,34.289988,27.851118,Sharm El Sheikh
80123202,RMF,EG,Egypt,Asia Minor,34.899971,25.0665,Marsa Alam
80462033,TCP,EG,Egypt,Asia Minor,34.883333,29.5,Taba
90486707,ATZ,EG,Egypt,Asia Minor,31.1850490570068,27.183780670166,Asyut
30001122,MLN,ES,Spain,Europe,-2.938484,35.291937,Melilla
30000445,DSS,SN,Senegal,Africa,-17.4799995422363,14.7200002670288,Dakar
90486384,CSK,SN,Senegal,Africa,-16.7165775299072,12.3571271896362,Cap Skirring
30000848,KAN,NG,Nigeria,Africa,8.5,11.5,Kano
30000954,LOS,NG,Nigeria,Africa,3.39582991600037,6.45306015014648,Lagos
80474867,ABV,NG,Nigeria,Africa,7.17,9.18,Abuja
30000485,DJE,TN,Tunisia,Africa,10.8451471328735,33.8075981140137,Djerba
30001161,MIR,TN,Tunisia,Africa,10.833333015441895,35.666664123535156,Monastir
30001651,SFA,TN,Tunisia,Africa,10.7613000869751,34.7451591491699,Sfax
30001844,TUN,TN,Tunisia,Africa,10.2200002670288,36.8400001525879,Tunis
90483994,TOE,TN,Tunisia,Africa,8.13121318817139,33.9240303039551,Tozeur
90486492,GAF,TN,Tunisia,Africa,8.78460025787354,34.4193000793457,Gafsa
90486491,TBJ,TN,Tunisia,Africa,8.75809955596924,36.9519996643066,Tabarka
90487065,NBE,TN,Tunisia,Africa,10.3816995620728,36.1352005004883,Enfidha
90487449,PHG,NG,Nigeria,Africa,7.00545310974121,4.78482103347778,Port Harcourt
90489869,Tatooine,TN,Tunisia,Africa,7.8427791595458984,33.9942741394043,Tatooine
30000094,AQP,PE,Peru,South America,-71.5299987792969,-16.3899993896484,Arequipa
30000369,CIX,PE,Peru,South America,-79.8399963378906,-6.76000022888184,Chiclayo
30000442,CUZ,PE,Peru,South America,-71.9873123168945,-13.5255603790283,Cuzco
30000786,IQT,PE,Peru,South America,-73.1999969482422,-3.75,Iquitos
30000832,JUL,PE,Peru,South America,-70.1399993896484,-15.5,Juliaca
30001008,SMG,PE,Peru,South America,-77.0500030517578,-12.0699987411499,Lima
30001449,PCL,PE,Peru,South America,-74.5299987792969,-8.39000034332275,Pucallpa
30001767,TPP,PE,Peru,South America,-76.4800033569336,-6.51000022888184,Tarapoto
30001837,TRU,PE,Peru,South America,-79.0299987792969,-8.10999870300293,Trujillo
90486119,PEM,PE,Peru,South America,-69.1918869018555,-12.6034202575684,Puerto Maldonado
90486123,PIU,PE,Peru,South America,-80.6248016357422,-5.19352006912231,Piura
90486124,TCQ,PE,Peru,South America,-70.2509994506836,-18.017599105835,Tacna
90486483,BGW,IQ,Iraq,Asia Minor,44.3922004699707,33.3157005310059,Baghdad
90487396,EBL,IQ,Iraq,Asia Minor,44.0161094665527,36.1798515319824,Erbil
30000130,BAH,BH,Bahrain,Asia Minor,50.6377716064453,25.9304141998291,Bahrain
30000143,BKK,TH,Thailand,Asia,100.5,13.729998588562,Bangkok
30000365,CNX,TH,Thailand,Asia,99.0,18.75,Chiang Mai
30000366,CEI,TH,Thailand,Asia,99.916664,19.916666,Chiang Rai
30000702,HDY,TH,Thailand,Asia,100.470001,7.0,Hat Yai
30000905,USM,TH,Thailand,Asia,100.005077,9.498998,Koh Samui
30001063,HGN,TH,Thailand,Asia,97.93,19.27,Mae Hong Son
30001215,NAK,TH,Thailand,Asia,102.099998,15.0,Nakhon Ratchasima
30001383,PHS,TH,Thailand,Asia,100.269996,16.819999,Phitsanulok
30001386,HKT,TH,Thailand,Asia,98.3515014648438,7.97500801086426,Phuket
30001564,SNO,TH,Thailand,Asia,104.151199,17.16346,Sakon Nakhon
30001743,URT,TH,Thailand,Asia,99.330001,9.14,Surat Thani
30001856,UTH,TH,Thailand,Asia,102.79,17.409999,Udon Thani
90483085,KKC,TH,Thailand,Asia,102.830001831055,16.4200000762939,Khon Kaen
90483109,KBV,TH,Thailand,Asia,98.910003,8.05,Krabi
90483529,PYX,TH,Thailand,Asia,100.900001,12.92,Pattaya
90486353,TDX,TH,Thailand,Asia,102.517692565918,12.2424716949463,Trat
90486358,UBP,TH,Thailand,Asia,104.859443664551,15.2280559539795,Ubon Ratchathani
30000208,FRU,KG,Kyrgyzstan,Asia,74.57,42.869999,Bishkek
30000398,RML,LK,Sri Lanka,Asia,79.8499984741211,6.92999887466431,Colombo
30000787,IKT,RU,Russia,Europe,104.23999786377,52.3300018310547,Irkutsk
30000140,BDO,ID,Indonesia,Asia,107.599998474121,-6.90999889373779,Bandung
30000809,JKT,ID,Indonesia,Asia,106.83000183105469,-6.179999828338623,Jakarta
30001074,MDC,ID,Indonesia,Asia,124.839996337891,1.5,Manado
30001114,MES,ID,Indonesia,Asia,98.6699981689453,3.589998960495,Medan
30001327,PDG,ID,Indonesia,Asia,100.349998474121,-0.949999988079071,Padang
30001332,PLM,ID,Indonesia,Asia,104.75,-2.99000000953674,Palembang
30001742,SUB,ID,Indonesia,Asia,112.73999786377,-7.23999881744385,Surabaya
30001984,JOG,ID,Indonesia,Asia,110.370002746582,-7.78000020980835,Yogyakarta
90486498,HPH,VN,Vietnam,Asia,106.683334350586,20.8500003814697,Hai Phong
90486360,BTJ,ID,Indonesia,Asia,95.3190536499023,5.54618215560913,Banda Aceh
90486361,SOC,ID,Indonesia,Asia,110.823097229004,-7.56868982315063,Solo City
90486497,VCA,VN,Vietnam,Asia,105.783332824707,10.033332824707,Can Tho
30000790,ISB,PK,Pakistan,Asia,73.0599975585938,33.7200012207031,Islamabad
30000853,KHI,PK,Pakistan,Asia,67.0100021362305,24.8600006103516,Karachi
30000956,LHE,PK,Pakistan,Asia,74.3499984741211,31.5599994659424,Lahore
30001378,PEW,PK,Pakistan,Asia,71.5400009155273,34.0099983215332,Peshawar
90486062,AGX,IN,India,Asia,72.175567626953125,10.823575019836426,Agatti
90486067,IXC,IN,India,Asia,76.784439086914062,30.73777961730957,Chandigarh
90486068,JLR,IN,India,Asia,79.944206237793,23.1636295318604,Jabalpur
90486091,ATQ,IN,India,Asia,74.8715515136719,31.6308898925781,Amritsar
90486098,IXL,IN,India,Asia,77.5801162719727,34.1803092956543,Leh
90486103,BHJ,IN,India,Asia,69.6625595092773,23.2516708374023,Bhuj
90486647,DHM,IN,India,Asia,76.3188400268555,32.2206611633301,Dharamsala
30000204,BTU,MY,Malaysia,Asia,113.029998779297,3.17000007629395,Bintulu
30000913,BKI,MY,Malaysia,Asia,116.069999694824,5.96999883651733,Kota Kinabalu
30000923,KCH,MY,Malaysia,Asia,110.339996337891,1.54999995231628,Kuching
30001602,SDK,MY,Malaysia,Asia,118.110000610352,5.84999895095825,Sandakan
30001064,GDX,RU,Russia,Europe,150.800003051758,59.5699996948242,Magadan
30000969,LCA,CY,Cyprus,Europe,33.6300010681152,34.9199981689453,Larnaca
30001260,NIC,CY,Cyprus,Europe,33.3800010681152,35.1599998474121,Nicosia
30001346,PFO,CY,Cyprus,Europe,32.4099998474121,34.7700004577637,Paphos
90485211,,CY,Cyprus,Europe,33.6300010681152,34.9199981689453,Larnaka
30001977,RGN,MM,Myanmar,Asia,96.1500015258789,16.7900009155273,Yangon
90483287,MDL,MM,Myanmar,Asia,96.0899963378906,21.9799995422363,Mandalay
30001775,TBS,GE,Georgia,Europe,44.79,41.720001,Tbilisi
30001974,YKS,RU,Russia,Europe,129.729507446289,62.0453605651855,Yakutsk
30001983,EVN,AM,Armenia,Asia,44.52,40.169998,Yerevan
30001072,MLA,MT,Malta,Europe,14.5124998092651,35.897777557373,Valletta
30001149,MSQ,BY,Belarus,Europe,27.549999237060547,53.909999847412109,Minsk
30000019,AGF,FR,France,Europe,0.62000000476837158,44.200000762939453,Agen
30000026,AJA,FR,France,Europe,8.73687934875488,41.9186477661133,Ajaccio
30000072,ANE,FR,France,Europe,-0.549000024795532,47.4694290161133,Angers
30000074,ANG,FR,France,Europe,0.160924002528191,45.6483383178711,Angouleme
30000078,NCY,FR,France,Europe,6.12845516204834,45.8996238708496,Annecy
30000121,AUR,FR,France,Europe,2.4300000667572,44.9199981689453,Aurillac
30000124,AVN,FR,France,Europe,4.8105549812316895,43.959991455078125,Avignon
30000160,BIA,FR,France,Europe,9.45074653625488,42.7021369934082,Bastia
30000168,BVA,FR,France,Europe,2.08106994628906,49.4292907714844,Beauvais
30000187,EGC,FR,France,Europe,0.479999989271164,44.8600006103516,Bergerac
30000191,QBQ,FR,France,Europe,6.0255661010742188,47.2412223815918,Besancon
30000193,BZR,FR,France,Europe,3.2141530513763428,43.348411560058594,Beziers
30000198,BIQ,FR,France,Europe,-1.5608789920806885,43.482254028320312,Biarritz
30000231,BOD,FR,France,Europe,-0.579999983310699,44.8400001525879,Bordeaux
30000255,BES,FR,France,Europe,-4.5,48.3899993896484,Brest
30000262,BVE,FR,France,Europe,1.5339399576187134,45.159549713134766,Brive La Gaillarde
30000287,CFR,FR,France,Europe,-0.36026960611343384,49.184665679931641,Caen
30000292,CQF,FR,France,Europe,1.85214304924011,50.9578628540039,Calais
30000298,CLY,FR,France,Europe,8.75710868835449,42.5667839050293,Calvi
30000308,CEQ,FR,France,Europe,7.0105938911437988,43.550872802734375,Cannes
30000315,CCF,FR,France,Europe,2.3560988903045654,43.212604522705078,Carcassonne
30000327,DCM,FR,France,Europe,2.24100756645203,43.6052894592285,Castres
30000339,CMF,FR,France,Europe,5.92068099975586,45.5679397583008,Chambery
30000355,CHR,FR,France,Europe,1.6918209791183472,46.808242797851562,Chateauroux
30000363,CER,FR,France,Europe,-1.62999999523163,49.6399993896484,Cherbourg
30000385,CFE,FR,France,Europe,3.0799999237060547,45.779998779296875,Clermont Ferrand
30000459,XDA,FR,France,Europe,-1.05540895462036,43.7094573974609,Dax
30000481,DIJ,FR,France,Europe,5.0439872741699219,47.327213287353516,Dijon
30000482,DNR,FR,France,Europe,-2.06310844421387,48.6305503845215,Dinard
30000542,EPL,FR,France,Europe,6.44000005722046,48.1800003051758,Epinal
30000661,GNB,FR,France,Europe,5.7316141128540039,45.194259643554688,Grenoble
30000941,LRH,FR,France,Europe,-1.1536400318145752,46.158100128173828,La Rochelle
30000982,LEH,FR,France,Europe,0.119999997317791,49.5,Le Havre
30000983,LME,FR,France,Europe,0.20000000298023224,48.0,Le Mans
30001005,LIL,FR,France,Europe,3.06301689147949,50.6371841430664,Lille
30001010,LIG,FR,France,Europe,1.26174604892731,45.8285217285156,Limoges
30001032,LRT,FR,France,Europe,-3.36628794670105,47.7500686645508,Lorient
30001037,LDE,FR,France,Europe,-0.0500000007450581,43.0999984741211,Lourdes
30001052,LYS,FR,France,Europe,4.8299999237060547,45.7599983215332,Lyon
30001056,QNX,FR,France,Europe,4.83337116241455,46.3091278076172,Macon
30001096,MRS,FR,France,Europe,5.369999885559082,43.310001373291016,Marseille
30001134,ETZ,FR,France,Europe,6.309089183807373,49.145156860351562,Metz
30001171,XMK,FR,France,Europe,4.7509303092956543,44.558689117431641,Montelimar
30001178,MPL,FR,France,Europe,3.87926888465881,43.608528137207,Montpellier
30001195,MLH,FR,France,Europe,7.3397798538208008,47.749492645263672,Mulhouse
30001221,NTE,FR,France,Europe,-1.5567270517349243,47.216796875,Nantes
30001259,NCE,FR,France,Europe,7.2699999809265137,43.700000762939453,Nice
30001261,FNI,FR,France,Europe,4.3499999046325684,43.840000152587891,Nimes
30001350,PAR,FR,France,Europe,2.3509659767150879,48.856559753417969,Paris
30001359,PUF,FR,France,Europe,-0.3743630051612854,43.297519683837891,Pau
30001372,PGX,FR,France,Europe,0.72183501720428467,45.186798095703125,Perigueux
30001374,PGF,FR,France,Europe,2.89415001869202,42.7015724182129,Perpignan
30001402,PIS,FR,France,Europe,0.34264799952507019,46.586986541748047,Poitiers
30001477,UIP,FR,France,Europe,-4.1100001335144,47.9900016784668,Quimper
30001496,RHE,FR,France,Europe,4.033109188079834,49.256591796875,Reims
30001497,RNS,FR,France,Europe,-1.6802300214767456,48.111736297607422,Rennes
30001521,RCO,FR,France,Europe,-0.975673973560333,45.9450340270996,Rochefort
30001529,RDZ,FR,France,Europe,2.57350993156433,44.3509254455566,Rodez
30001542,URO,FR,France,Europe,1.09849202632904,49.4423675537109,Rouen
30001552,EBU,FR,France,Europe,4.38783121109009,45.4396362304688,St Etienne
30001732,SXB,FR,France,Europe,7.74383783340454,48.5829582214355,Strasbourg
30001820,TLN,FR,France,Europe,5.93111181259155,43.1251602172852,Toulon
30001821,TLS,FR,France,Europe,1.4430069923400879,43.604362487792969,Toulouse
30001822,TUF,FR,France,Europe,0.68885201215744,47.3902931213379,Tours
30001836,QYR,FR,France,Europe,4.074800968170166,48.297470092773438,Troyes
30001877,VAF,FR,France,Europe,4.8903498649597168,44.930595397949219,Valence
30002005,FSC,FR,France,Europe,9.12972259521484,41.4882354736328,Figari
80467757,DOL,FR,France,Europe,0.074074998497963,49.3573150634766,Deauville
80478858,LTT,FR,France,Europe,6.64098501205444,43.2701835632324,Saint-Tropez
90482052,BYF,FR,France,Europe,2.64764499664307,50.0036926269531,Albert
90482723,DLE,FR,France,Europe,5.4878749847412109,47.089115142822266,Dole
90483150,LAI,FR,France,Europe,-3.45867896080017,48.7320404052734,Lannion
90483174,LTQ,FR,France,Europe,1.59014105796814,50.5243949890137,Le Touquet
90483195,LSO,FR,France,Europe,-1.77134895324707,46.4959716796875,Les Sables d'Olonne
90484619,FRXMM,MC,Monaco,Europe,7.4189071655273438,43.732528686523438,Monaco
90484844,,FR,France,Europe,2.2434670925140381,48.833820343017578,Boulogne Billancourt
90485372,RQBM,FR,France,Europe,6.7665681838989258,45.616802215576172,Bourg Saint Maurice
90485629,XHY,FR,France,Europe,-1.7759398221969604,43.3593864440918,Hendaye
90485827,RQMU,FR,France,Europe,6.65178489685059,45.556079864502,Aime
90486086,SBK,FR,France,Europe,-2.8481810092926,48.5226135253906,Tremuson
90486457,LKL,NO,Norway,Europe,24.9697895050049,70.0447158813477,Lakselv
90487462,XCR,FR,France,Europe,4.24440383911133,48.8216552734375,Vatry
90489858,FRMUS,FR,France,Europe,7.13457298278809,48.0399894714355,Munster
90491985,,FR,France,Europe,5.97245407104492,49.2170639038086,Auboue
90530998,OUI,FR,France,Europe,-5.0956001281738281,48.458099365234375,Ouessant
90498555,,FR,France,Europe,5.57556581497192,46.1862373352051,Montreal-la-Cluse
30000237,BOJ,BG,Bulgaria,Europe,27.4699993133545,42.5099983215332,Bourgas
30001685,SOF,BG,Bulgaria,Europe,23.3099994659424,42.689998626709,Sofia
30001889,VAR,BG,Bulgaria,Europe,27.8999996185303,43.2099990844727,Varna
90482397,,BG,Bulgaria,Europe,27.4699993133545,42.5099983215332,Burgas
90486475,CCK,CC,Cocos (Keeling) Islands,Indian ocean islands,96.8310775756836,-12.1899995803833,Bantam
30000088,FGI,WS,Samoa,Australia and oceania,-171.759994506836,-13.8299999237061,Apia
30001208,NAN,FJ,Fiji,Australia and oceania,177.419998168945,-17.7999992370605,Nadi
30001639,SVU,FJ,Fiji,Australia and oceania,179.339996337891,-16.7800006866455,Savusavu
30001745,SUV,FJ,Fiji,Australia and oceania,178.429992675781,-18.1299991607666,Suva
30000666,GUM,GU,Guam,Australia and oceania,144.763168334961,13.4521083831787,Guam
30001838,TKK,FM,Micronesia,Australia and oceania,151.843383789062,7.45913887023926,Truk
30000105,ASM,ER,Eritrea,Asia Minor,38.939999,15.33,Asmara
30000138,BKO,ML,Mali,Africa,-7.98999881744385,12.649998664856,Bamako
30000145,BGF,CF,Central African Republic,Africa,18.559999,4.36,Bangui
90486321,BSN,CF,Central African Republic,Africa,17.4608993530273,6.47139978408813,Bossangoa
30000147,BJL,GM,Gambia,Africa,-16.6,13.46,Banjul
30000211,OXB,GW,Guinea Bissau,Africa,-15.6,11.87,Bissau
30000495,DLA,CM,Cameroon,Africa,9.71000003814697,4.05999898910522,Douala
30001978,YAO,CM,Cameroon,Africa,11.5200004577637,3.86999988555908,Yaounde
30000277,BUQ,ZW,Zimbabwe,Africa,28.5799999237061,-20.1700000762939,Bulawayo
30000694,HRE,ZW,Zimbabwe,Africa,31.049999,-17.819999,Harare
30000752,HWN,ZW,Zimbabwe,Africa,27.031666,-18.626667,Hwange National Park
30000854,KAB,ZW,Zimbabwe,Africa,28.799999,-16.530001,Kariba
30001902,VFA,ZW,Zimbabwe,Africa,25.8400001525879,-17.9300003051758,Victoria Falls
90481995,KGL,RW,Rwanda,Africa,30.059999,-1.94,Kigali
30001038,LAD,AO,Angola,Africa,13.24,-8.82,Luanda
30001018,LVI,ZM,Zambia,Africa,25.8600006103516,-17.8600006103516,Livingstone
30001047,LUN,ZM,Zambia,Africa,28.290001,-15.42,Lusaka
30001235,NLA,ZM,Zambia,Africa,28.639999,-12.97,Ndola
30001067,SSG,GQ,Equatorial Guinea,Africa,8.789999,3.74,Malabo
30000173,BEW,MZ,Mozambique,Africa,34.84,-19.829999,Beira
30001087,MPM,MZ,Mozambique,Africa,32.5699996948242,-25.9500007629395,Maputo
30001100,MSU,LS,Lesotho,Africa,28.0,-29.5,Maseru
90486511,AJY,NE,Niger,Africa,7.98859977722168,16.9892997741699,Agades
30001308,AUA,AW,Aruba,Atlantic ocean islands,-70.0299987792969,12.5299987792969,Oranjestad
30000765,IOS,BR,Brazil,South America,-39.0499992370605,-14.7799987792969,Ilheus
30001431,BPS,BR,Brazil,South America,-39.0646018981934,-16.4511070251465,Porto Seguro
30001573,SSA,BR,Brazil,South America,-38.5,-12.9700002670288,Salvador da Bahia
30000175,BEL,BR,Brazil,South America,-48.5,-1.44000005722046,Belem
30000313,CKS,BR,Brazil,South America,-51.8611907958984,-2.95123791694641,Carajas
30001054,MCP,BR,Brazil,South America,-51.0499992370605,0.0399999991059303,Macapa
90486660,ASB,TM,Turkmenistan,Asia,58.3802223205566,37.9501953125,Ashgabat
30000023,AMD,IN,India,Asia,72.5800018310547,23.0300006866455,Ahmedabad
30000120,IXU,IN,India,Asia,75.3199996948242,19.8899993896484,Aurangabad
30000128,,IN,India,Asia,88.319999694824219,26.700000762939453,Bagdogra
30000142,BLR,IN,India,Asia,77.5599975585938,12.9700002670288,Bangalore
30000196,BBI,IN,India,Asia,85.8399963378906,20.2700004577637,Bhubaneswar
30000227,BOM,IN,India,Asia,72.8199996948242,18.9599990844727,Mumbai
30000293,CCU,IN,India,Asia,88.3600006103516,22.5699996948242,Kolkata
30000297,CCJ,IN,India,Asia,75.7812118530273,11.2553997039795,Calicut
30000391,COK,IN,India,Asia,76.2250823974609,10.0119800567627,Cochin
30000393,CJB,IN,India,Asia,76.9707107543945,11.0052003860474,Coimbatore
30000468,DEL,IN,India,Asia,77.2249603271484,28.6353092193604,Delhi
30000633,GOI,IN,India,Asia,73.9485168457031,15.3912668228149,Goa
30000755,HYD,IN,India,Asia,78.4800033569336,17.3999996185303,Hyderabad
30000808,JAI,IN,India,Asia,75.8000030517578,26.9200000762939,Jaipur
30000812,IXJ,IN,India,Asia,74.8499984741211,32.7099990844727,Jammu
30000819,JDH,IN,India,Asia,73.0199966430664,26.2900009155273,Jodhpur
30001041,LKO,IN,India,Asia,80.9199981689453,26.8500003814697,Lucknow
30001060,MAA,IN,India,Asia,80.2699966430664,13.0900001525879,Chennai
30001062,IXM,IN,India,Asia,78.120002746582,9.92000007629395,Madurai
30001079,IXE,IN,India,Asia,74.8399963378906,12.8800001144409,Mangalore
30001410,PNQ,IN,India,Asia,73.8399963378906,18.5300006866455,Poona
30001416,IXZ,IN,India,Asia,92.7600021362305,11.6700000762939,Port Blair
30001483,RPR,IN,India,Asia,81.629997253418,21.2399997711182,Raipur
30001702,SXR,IN,India,Asia,74.7900009155273,34.0900001525879,Srinagar
30001809,TRZ,IN,India,Asia,78.6900024414062,10.8100004196167,Tiruchirapally
30001833,TRV,IN,India,Asia,76.9521865844727,8.50369644165039,Trivandrum
30001855,UDR,IN,India,Asia,73.6900024414062,24.5799999237061,Udaipur
30001871,BDQ,IN,India,Asia,73.1800003051758,22.3099994659424,Vadodara
30001887,VNS,IN,India,Asia,83.0100021362305,25.3199996948242,Varanasi
30001914,VTZ,IN,India,Asia,83.3000030517578,17.7299995422363,Vishakhapatnam
90482337,BHO,IN,India,Asia,77.4000015258789,23.2399997711182,Bhopal
90482707,DED,IN,India,Asia,78.1808319091797,30.1883335113525,Dehradun
90486078,IDR,IN,India,Asia,75.8665237426758,22.7270698547363,Indore
90486651,NDC,IN,India,Asia,77.3058471679688,19.1530609130859,Nanded
90486652,IXI,IN,India,Asia,94.0894470214844,27.2922229766846,Lilabari
90486653,ISK,IN,India,Asia,73.7808532714844,20.000659942627,Nasik
90486654,LTU,IN,India,Asia,76.5809707641602,18.3976802825928,Latur
90486655,JSA,IN,India,Asia,70.912727355957,26.9117794036865,Jaisalmer
90486656,VDY,IN,India,Asia,78.885955810546875,17.52067756652832,Vidyanagar
30000040,ALP,SY,Syria,Asia Minor,37.1591949462891,36.2142944335938,Aleppo
30000450,DAM,SY,Syria,Asia Minor,36.3199996948242,33.5,Damascus
90486708,LTK,SY,Syria,Asia Minor,35.7859001159668,35.5247993469238,Latakia
90486333,DYU,TJ,Tajikistan,Asia,68.7738037109375,38.5736999511719,Dushanbe
30000013,ADA,TR,Turkey,Europe,35.3199996948242,37.0,Adana
30000076,ESB,TR,Turkey,Europe,32.849998474121094,39.930000305175781,Ankara
30000081,AYT,TR,Turkey,Europe,31.0,37.0,Antalya
30000162,BAL,TR,Turkey,Europe,41.1300010681152,37.8899993896484,Batman
30000223,BJV,TR,Turkey,Europe,27.4300003051758,37.0400009155273,Bodrum
30000446,DLM,TR,Turkey,Europe,28.7999992370605,36.7700004577637,Dalaman
30000484,DIY,TR,Turkey,Europe,40.5,38.0,Diyarbakir
30000545,ERZ,TR,Turkey,Europe,41.5,40.0,Erzurum
30000795,IST,TR,Turkey,Europe,29.0,41.099998474121094,Istanbul
30000800,IZM,TR,Turkey,Europe,27.1499996185303,38.4300003051758,Izmir
30001677,VAS,TR,Turkey,Europe,37.0200004577637,39.75,Sivas
30001825,TZX,TR,Turkey,Europe,39.7099990844727,41.0,Trabzon
90486073,SZF,TR,Turkey,Europe,36.3329162597656,41.28955078125,Samsun
90486075,ASR,TR,Turkey,Europe,35.4785957336426,38.7287979125977,Kayseri
90486081,KYA,TR,Turkey,Europe,32.4924659729004,37.8724060058594,Konya
90487369,NAV,TR,Turkey,Europe,34.7140007019043,38.624599456787109,Nevşehir
90487455,EZS,TR,Turkey,Europe,39.222900390625,38.6754989624023,Elazig
90487456,GZT,TR,Turkey,Europe,37.3761024475098,37.0629463195801,Gaziantep
90487457,MLX,TR,Turkey,Europe,38.3143005371094,38.3474998474121,Malatya
90487458,HTY,TR,Turkey,Europe,36.2137985229492,36.361198425293,Serinyol
90487459,MQM,TR,Turkey,Europe,40.7377777099609,37.3166656494141,Mardin
90487460,VAN,TR,Turkey,Europe,43.3800010681152,38.4941673278809,Van
30000197,BIK,ID,Indonesia,Asia,136.050003051758,-1.16999900341034,Biak
30001786,TTE,ID,Indonesia,Asia,127.377159118652,0.788070023059845,Ternate
30000862,KTM,NP,Nepal,Asia,85.3099975585938,27.7099990844727,Kathmandu
30000471,DPS,ID,Indonesia,Asia,115.22000122070312,-8.649998664855957,Denpasar
30000172,BJS,CN,China,Asia,116.39794921875,39.908172607421875,Beijing
30000343,CSX,CN,China,Asia,112.970001220703,28.2000007629395,Changsha
30000362,CTU,CN,China,Asia,104.069999694824,30.6700000762939,Chengdu
30000447,DLC,CN,China,Asia,121.650001525879,38.9199981689453,Dalian
30000667,CAN,CN,China,Asia,113.25,23.1200008392334,Guangzhou
30000674,KWL,CN,China,Asia,110.279998779297,25.2800006866455,Guilin
30000679,HAK,CN,China,Asia,110.319999694824,20.0499992370605,Haikou
30000691,HGH,CN,China,Asia,120.169998168945,30.25,Hangzhou
30000727,HET,CN,China,Asia,111.639999389648,40.8199996948242,Hohhot
30000926,KMG,CN,China,Asia,102.699996948242,25.0499992370605,Kunming
30001218,NKG,CN,China,Asia,118.77999877929688,32.049999237060547,Nanjing
30001219,NNG,CN,China,Asia,108.319999694824,22.8199996948242,Nanning
30001625,SYX,CN,China,Asia,109.480003356934,18.2299995422363,Sanya
30001652,SHA,CN,China,Asia,121.470001220703,31.2299995422363,Shanghai
30001654,SWA,CN,China,Asia,116.669998168945,23.3700008392334,Shantou
30001660,SHE,CN,China,Asia,123.449996948242,41.7999992370605,Shenyang
30001661,SZX,CN,China,Asia,114.05786895752,22.543098449707,Shenzhen
30001867,URC,CN,China,Asia,87.5800018310547,43.7999992370605,Urumqi
30001969,WUH,CN,China,Asia,114.269996643066,30.5799999237061,Wuhan
30001971,XIY,CN,China,Asia,108.944267272949,34.2649917602539,Xi An
30001972,XMN,CN,China,Asia,118.080001831055,24.4500007629395,Xiamen
30001998,CGO,CN,China,Asia,113.669998168945,34.75,Zhengzhou
90482977,HFE,CN,China,Asia,117.279998779297,31.8500003814697,Hefei
90483265,MFM,CN,China,Asia,113.559997558594,22.2700004577637,Macau
90483972,TSN,CN,China,Asia,117.199996948242,39.1333312988281,Tianjin
90484121,WNZ,CN,China,Asia,120.650001525879,28.0200004577637,Wenzhou
90484157,WUX,CN,China,Asia,120.300003051758,31.5799999237061,Wuxi
90498024,NGB,CN,China,Asia,121.544097900391,29.8681316375732,Ningbo
30000276,BHK,UZ,Uzbekistan,Asia,64.4223480224609,39.765869140625,Bukhara
30001576,SKD,UZ,Uzbekistan,Asia,66.9499969482422,39.6599998474121,Samarkand
30001772,TAS,UZ,Uzbekistan,Asia,69.3000030517578,41.310001373291,Tashkent
30001865,UGC,UZ,Uzbekistan,Asia,60.621768951416,41.5538597106934,Urgench
30000532,ETH,IL,Israel,Asia Minor,34.9626998901367,29.557300567627,Elat
30001323,VDA,IL,Israel,Asia Minor,34.9358329772949,29.9402770996094,Ovda
30001778,TLV,IL,Israel,Asia Minor,34.7697105407715,32.0451583862305,Tel Aviv
30000109,ATH,GR,Greece,Europe,23.729999542236328,37.979999542236328,Athens
30000344,CHQ,GR,Greece,Europe,24.0200004577637,35.5099983215332,Chania
30000417,CFU,GR,Greece,Europe,19.9200000762939,39.6199989318848,Corfu
30000714,HER,GR,Greece,Europe,25.1299991607666,35.3300018310547,Heraklion
30000781,IOA,GR,Greece,Europe,20.8500003814697,39.6699981689453,Ioannina
30000838,KLX,GR,Greece,Europe,22.1100006103516,37.0400009155273,Kalamata
30000856,AOK,GR,Greece,Europe,27.2299995422363,35.5,Karpathos
30000860,KSJ,GR,Greece,Europe,26.9263668060303,35.4010543823242,Kasos
30000866,KVA,GR,Greece,Europe,24.3999996185303,40.939998626709,Kavala
30000909,KGS,GR,Greece,Europe,27.2836875915527,36.8911552429199,Kos
30000994,LRS,GR,Greece,Europe,26.8011112213135,37.1836128234863,Leros
30001140,JMK,GR,Greece,Europe,25.3299999237061,37.4500007629395,Mykonos
30001145,MLO,GR,Greece,Europe,24.4300003051758,36.75,Milos
30001206,MJT,GR,Greece,Europe,26.5499992370605,39.1100006103516,Mytilene
30001234,JNX,GR,Greece,Europe,25.5207366943359,37.0755462646484,Naxos Island
30001354,PAS,GR,Greece,Europe,25.1499996185303,37.0800018310547,Paros
30001358,GPA,GR,Greece,Europe,21.7299995422363,38.2400016784668,Patras
30001442,PVK,GR,Greece,Europe,20.75,38.9500007629395,Preveza
30001505,RHO,GR,Greece,Europe,28.2268810272217,36.4431037902832,Rhodes
30001577,SMI,GR,Greece,Europe,26.9799995422363,37.7599983215332,Samos
30001624,JTR,GR,Greece,Europe,25.4599990844727,36.4000015258789,Santorini
30001680,JSI,GR,Greece,Europe,23.4799995422363,39.1699981689453,Skiathos
30001794,SKG,GR,Greece,Europe,22.9400005340576,40.6399993896484,Thessaloniki
30001992,ZTH,GR,Greece,Europe,20.8999996185303,37.7900009155273,Zakinthos
80462025,VOL,GR,Greece,Europe,22.9500007629395,39.3699989318848,Volos
80462045,EFL,GR,Greece,Europe,20.5692176818848,38.1753692626953,Kefalonia
90485455,JSY,GR,Greece,Europe,24.9300003051758,37.4500007629395,Ermoupolis
90486066,JKH,GR,Greece,Europe,26.1166667938232,38.3833312988281,Chios
90486084,AXD,GR,Greece,Europe,25.7476501464844,40.8627395629883,Alexandroupolis
90486490,LXS,GR,Greece,Europe,25.2717685699463,39.8746528625488,Moudros
90486638,KZS,GR,Greece,Europe,29.5710391998291,36.1312141418457,Kastelorizo
90486639,JTY,GR,Greece,Europe,26.2698192596436,36.5827484130859,Astipalaia
90486640,KZI,GR,Greece,Europe,21.8022308349609,40.3120193481445,Kozani
90486641,KIT,GR,Greece,Europe,22.9878978729248,36.1496543884277,Kithira
90486642,JKL,GR,Greece,Europe,26.9841213226318,36.9499168395996,Kalymnos
90486643,KSO,GR,Greece,Europe,21.276029586792,40.5258903503418,Kastoria
90486644,JSH,GR,Greece,Europe,26.096399307251,35.2100296020508,Sitia
90486645,JIK,GR,Greece,Europe,26.2999992370605,37.6166687011719,Agios Kirykos
30000059,AOC,DE,Germany,Europe,12.4443292617798,50.9921836853027,Altenburg
30000117,AGB,DE,Germany,Europe,10.890000343322754,48.360000610351562,Augsburg
30000127,,DE,Germany,Europe,8.22999954223633,48.7599983215332,Baden Baden
30000165,BYU,DE,Germany,Europe,11.5799999237061,49.9500007629395,Bayreuth
30000188,BER,DE,Germany,Europe,13.380000114440918,52.520000457763672,Berlin
30000252,BRE,DE,Germany,Europe,8.8100004196167,53.080001831054688,Bremen
30000397,CGN,DE,Germany,Europe,6.9599108695983887,50.9406623840332,Cologne
30000492,DTM,DE,Germany,Europe,7.48000001907349,51.5099983215332,Dortmund
30000497,DRS,DE,Germany,Europe,13.7399997711182,51.0499992370605,Dresden
30000516,DUS,DE,Germany,Europe,6.7756524085998535,51.224941253662109,Dusseldorf
30000543,ERF,DE,Germany,Europe,11.0299997329712,50.9900016784668,Erfurt
30000586,FRA,DE,Germany,Europe,8.6843070983886719,50.112258911132812,Frankfurt
30000593,FDH,DE,Germany,Europe,9.47837066650391,47.651912689209,Friedrichshafen
30000684,XFW,DE,Germany,Europe,9.9732589721679688,53.549839019775391,Hamburg
30000693,HAJ,DE,Germany,Europe,9.7356719970703125,52.372024536132812,Hanover
30000710,HDB,DE,Germany,Europe,8.68023872375488,49.401927947998,Heidelberg
30000855,FKB,DE,Germany,Europe,8.39999961853027,49.0,Karlsruhe
30000883,KEL,DE,Germany,Europe,10.1358604431152,54.3226852416992,Kiel
30000990,LEJ,DE,Germany,Europe,12.399999618530273,51.349998474121094,Leipzig
30001040,LBC,DE,Germany,Europe,10.6599998474121,53.8699989318848,Lubeck
30001198,MUC,DE,Germany,Europe,11.5802125930786,48.1391258239746,Munich
30001199,FMO,DE,Germany,Europe,10.0900793075562,52.9854431152344,Munster
30001266,NRD,DE,Germany,Europe,7.15000009536743,53.7000007629395,Norderney
30001283,NUE,DE,Germany,Europe,11.0804796218872,49.4505195617676,Nuremberg
30001328,PAD,DE,Germany,Europe,8.75212955474854,51.7152557373047,Paderborn
30001536,RLG,DE,Germany,Europe,12.1329555511475,54.0901336669922,Rostock
30001546,SCN,DE,Germany,Europe,6.99441194534302,49.2348594665527,Saarbruecken
30001735,STR,DE,Germany,Europe,9.18070793151855,48.7771263122559,Stuttgart
30001939,GWT,DE,Germany,Europe,8.30652141571045,54.9075050354004,Westerland
90480931,ZQW,DE,Germany,Europe,7.36083793640137,49.2469711303711,Zweibrücken
90482038,AAH,DE,Germany,Europe,6.0845499038696289,50.7769660949707,Aachen
90483068,KLT,DE,Germany,Europe,7.76898813247681,49.444694519043,Kaiserslautern
90483459,NUE,DE,Germany,Europe,6.95196008682251,50.3413352966309,Nuerburg
90484020,QUL,DE,Germany,Europe,9.99660587310791,48.3996238708496,Ulm
90486035,FMM,DE,Germany,Europe,10.177453994751,47.9844512939453,Memmingen
90486456,HOQ,DE,Germany,Europe,11.9134712219238,50.3165817260742,Hof
90486684,EAP,DE,Germany,Europe,7.85376691818237,47.997184753418,Freiburg
30000411,NOC,IE,Ireland,Europe,-6.92719268798828,53.6241340637207,Knock
30000418,ORK,IE,Ireland,Europe,-8.47109413146973,51.8978652954102,Cork
30000504,DUB,IE,Ireland,Europe,-6.25,53.3300018310547,Dublin
30000605,GWY,IE,Ireland,Europe,-9.0600004196167,53.2799987792969,Galway
30000877,KIR,IE,Ireland,Europe,-8.31983852386475,53.4827919006348,Kerry County
30001653,SNN,IE,Ireland,Europe,-8.86862754821777,52.7137298583984,Shannon
30001682,SXL,IE,Ireland,Europe,-8.47999858856201,54.2799987792969,Sligo
30001929,WAT,IE,Ireland,Europe,-7.12660789489746,52.252082824707,Waterford
80123196,CFN,IE,Ireland,Europe,-8.11999893188477,54.6599998474121,Donegal
30000560,FAO,PT,Portugal,Europe,-7.94000005722046,37.0299987792969,Faro
30001014,LIS,PT,Portugal,Europe,-9.1400003433227539,38.720001220703125,Lisbon
30001428,OPO,PT,Portugal,Europe,-8.61999893188477,41.1500015258789,Porto
30000005,ABZ,GB,United Kingdom,Europe,-2.09427809715271,57.149715423583984,Aberdeen
30000037,ACI,GB,United Kingdom,Europe,-2.19979453086853,49.7137145996094,Alderney
30000155,BRR,GB,United Kingdom,Europe,-7.45679569244385,56.980884552002,Barra / Hebrides Islands
30000206,BHX,GB,United Kingdom,Europe,-1.9099999666213989,52.479999542236328,Birmingham
30000212,BLK,GB,United Kingdom,Europe,-3.05999994277954,53.8199996948242,Blackpool
30000239,BOH,GB,United Kingdom,Europe,-1.87852656841278,50.7216796875,Bournemouth
30000260,BRS,GB,United Kingdom,Europe,-2.5999999046325684,51.459999084472656,Bristol
30000316,CWL,GB,United Kingdom,Europe,-3.1800000667572021,51.479999542236328,Cardiff
30000490,DSA,GB,United Kingdom,Europe,-1.12000000476837,53.5299987792969,Doncaster
30000509,DND,GB,United Kingdom,Europe,-3.0,56.4700012207031,Dundee
30000515,MME,GB,United Kingdom,Europe,-1.55937194824219,54.7785263061523,Durham Tees Valley
30000523,EDI,GB,United Kingdom,Europe,-3.22000002861023,55.9500007629395,Edinburgh
30000554,EXT,GB,United Kingdom,Europe,-3.53999996185303,50.7299995422363,Exeter
30000627,GLA,GB,United Kingdom,Europe,-4.26999998092651,55.8699989318848,Glasgow
30000672,GCI,GB,United Kingdom,Europe,-2.52414798736572,49.4903526306152,Guernsey
30000747,HUY,GB,United Kingdom,Europe,-0.34924578666687,53.583309173584,Humberside
30000779,INV,GB,United Kingdom,Europe,-4.23999977111816,57.4900016784668,Inverness
30000791,ILY,GB,United Kingdom,Europe,-6.17706680297852,55.7362518310547,Islay
30000792,IOM,GB,United Kingdom,Europe,-4.56199598312378,54.2386817932129,Isle Of Man
30000817,JER,GB,United Kingdom,Europe,-2.13124990463257,49.2144393920898,Jersey
30000896,KOI,GB,United Kingdom,Europe,-2.95631527900696,58.9803695678711,Kirkwall / Orkney Island
30000987,LBA,GB,United Kingdom,Europe,-1.54999995231628,53.810001373291,Leeds
30001017,LPL,GB,United Kingdom,Europe,-2.99000000953674,53.4199981689453,Liverpool
30001024,LON,GB,United Kingdom,Europe,-0.10000000149011612,51.520000457763672,London
30001077,MAN,GB,United Kingdom,Europe,-2.25,53.479999542236328,Manchester
30001254,NCL,GB,United Kingdom,Europe,-1.61291646957397,54.977840423584,Newcastle upon Tyne
30001257,NQY,GB,United Kingdom,Europe,-5.0799999237060547,50.419998168945312,Newquay
30001274,NWI,GB,United Kingdom,Europe,1.27999997138977,52.6500015258789,Norwich
30001277,NQT,GB,United Kingdom,Europe,-1.17999994754791,52.9700012207031,Nottingham
30001368,PZE,GB,United Kingdom,Europe,-5.55999994277954,50.1300010681152,Penzance
30001394,PLH,GB,United Kingdom,Europe,-4.14261817932129,50.3754653930664,Plymouth
30001663,SDZ,GB,United Kingdom,Europe,-1.25642514228821,60.3441619873047,Shetland Islands
30001694,SOU,GB,United Kingdom,Europe,-1.4099999666214,50.9099998474121,Southampton
30001695,SEN,GB,United Kingdom,Europe,0.709999978542328,51.5499992370605,Southend on sea
30001731,SYY,GB,United Kingdom,Europe,-6.3899998664856,58.2099990844727,Stornoway
30001807,TRE,GB,United Kingdom,Europe,-6.88000011444092,56.5,Tiree
30001863,UNT,GB,United Kingdom,Europe,-0.872407972812653,60.7402496337891,Unst Shetland Islands
30001950,WIC,GB,United Kingdom,Europe,-3.07999992370605,58.4300003051758,Wick
80462037,CVT,GB,United Kingdom,Europe,-1.5,52.4199981689453,Coventry
90482163,BASI,GB,United Kingdom,Europe,0.860000014305115,51.1500015258789,Ashford
90482887,GLO,GB,United Kingdom,Europe,-2.2400000095367432,51.860000610351562,Gloucester
90483935,SWS,GB,United Kingdom,Europe,-3.96000003814697,51.6300010681152,Swansea
90486095,,GB,United Kingdom,Europe,-0.28095600008964539,50.835678100585938,Shoreham-by-sea
90486376,CAL,GB,United Kingdom,Europe,-5.60618495941162,55.4234771728516,Campbeltown
90486377,BEB,GB,United Kingdom,Europe,-7.36650896072388,57.4254722595215,Benbecula
90486407,MSE,GB,United Kingdom,Europe,1.38182604312897,51.3447418212891,Manston
90487467,BEBF,GB,United Kingdom,Europe,0.297071009874344,51.4343223571777,Ebbsfleet Valley
30000047,ALC,ES,Spain,Europe,-0.49043655395507812,38.345157623291016,Alicante
30000053,LEI,ES,Spain,Europe,-2.46791100502014,36.8397636413574,Almeria
30000149,BCN,ES,Spain,Europe,2.1699190139770508,41.387916564941406,Barcelona
30000199,BIO,ES,Spain,Europe,-2.9234240055084229,43.2569694519043,Bilbao
30000621,GRO,ES,Spain,Europe,2.84098410606384,41.9841804504395,Gerona
30000645,GRX,ES,Spain,Europe,-3.597991943359375,37.17645263671875,Granada
30000758,IBZ,ES,Spain,Europe,1.42366003990173,38.9103355407715,Ibiza
30000816,XRY,ES,Spain,Europe,-6.13000011444092,36.6800003051758,Jerez De La Frontera
30000935,YJC,ES,Spain,Europe,-8.4061717987060547,43.367778778076172,La Coruna
30001061,MAD,ES,Spain,Europe,-3.7032699584960938,40.416713714599609,Madrid
30001068,AGP,ES,Spain,Europe,-4.41990804672241,36.7196235656738,Malaga
30001128,MAH,ES,Spain,Europe,4.11044502258301,39.9496269226074,Menorca
30001200,MJV,ES,Spain,Europe,-1.1298969984054565,37.983375549316406,Murcia
30001324,OVD,ES,Spain,Europe,-5.84475708007812,43.3602561950684,Oviedo
30001335,PMI,ES,Spain,Europe,2.65000009536743,39.5699996948242,Palma de Mallorca
30001340,PNA,ES,Spain,Europe,-1.6499999761581421,42.819999694824219,Pamplona
30001501,REU,ES,Spain,Europe,1.10867595672607,41.1548156738281,Reus
30001599,EAS,ES,Spain,Europe,-1.98555600643158,43.3213882446289,San Sebastian
30001616,SDR,ES,Spain,Europe,-3.80793309211731,43.4609603881836,Santander
30001621,SCQ,ES,Spain,Europe,-8.54630184173584,42.8804473876953,Santiago de Compostela
30001650,SVQ,ES,Spain,Europe,-5.99796199798584,37.390495300293,Sevilla
30001878,VLC,ES,Spain,Europe,-0.376872003078461,39.4702186584473,Valencia
30001881,VLL,ES,Spain,Europe,-4.73999977111816,41.6500015258789,Valladolid
30001916,VIT,ES,Spain,Europe,-2.67163491249084,42.8467178344727,Vitoria
30001996,ZAZ,ES,Spain,Europe,-0.876578986644745,41.6563377380371,Zaragoza
90482049,ABC,ES,Spain,Europe,-1.86006999015808,38.9976501464844,Albacete
90482070,XAGS,ES,Spain,Europe,-5.44503784179687,36.129940032959,Algeciras
90482114,ASA,ES,Spain,Europe,-4.56288480758667,37.0193786621094,Antequera
90482223,BJZ,ES,Spain,Europe,-6.970283031463623,38.878597259521484,Badajoz
90482478,CDZ,ES,Spain,Europe,-6.29240894317627,36.5299415588379,Cadiz
90482531,CRT,ES,Spain,Europe,-0.980000019073486,37.6100006103516,Cartagena
90482935,GDJ,ES,Spain,Europe,-3.16649293899536,40.6298141479492,Guadalajara
90483016,HEV,ES,Spain,Europe,-6.94959115982056,37.257194519043,Huelva
90483039,XIRU,ES,Spain,Europe,-1.78920602798462,43.3382720947266,Irun
90483188,LEN,ES,Spain,Europe,-5.57073307037354,42.6002235412598,Leon
90483240,LGR,ES,Spain,Europe,-2.44999504089355,42.4657745361328,Logroño
90483761,SLM,ES,Spain,Europe,-5.67000007629395,40.9700012207031,Salamanca
90483980,TLD,ES,Spain,Europe,-4.02447605133057,39.8567771911621,Toledo
90484060,VGO,ES,Spain,Europe,-8.71244621276855,42.2313537597656,Vigo
90484463,ODB,ES,Spain,Europe,-4.7769021987915,37.8863182067871,Cordoba
90484521,ILD,ES,Spain,Europe,0.625782012939453,41.6141510009766,Lleida
90484558,SGV,ES,Spain,Europe,-4.11920881271362,40.9494285583496,Segovia
90484603,HSC,ES,Spain,Europe,-0.408897012472153,42.1401023864746,Huesca
90484646,,ES,Spain,Europe,2.8409841060638428,41.984180450439453,Girona
90484674,CQM,ES,Spain,Europe,-3.92726397514343,38.9860954284668,Ciudad Real
90484861,ESFI,ES,Spain,Europe,2.96083998680115,42.2674980163574,Figueres
90485500,CYD,ES,Spain,Europe,-1.64700901508331,41.354320526123,Calatayud
90487450,PGH,ES,Spain,Europe,-4.76666688919067,37.3833351135254,Puente Genil
90487451,XPGH,ES,Spain,Europe,-4.85001373291016,37.3617553710938,Herrera
30001169,MCM,MC,Monaco,Europe,7.42643070220947,43.7406005859375,Monte Carlo
30000096,ARH,RU,Russia,Europe,40.5299987792969,64.5699996948242,Arkhangelsk
30000916,KRR,RU,Russia,Europe,38.9799995422363,45.0299987792969,Krasnodar
30001189,MOW,RU,Russia,Europe,37.619998931884766,55.75,Moscow
30001201,MMK,RU,Russia,Europe,33.0800018310547,68.9599990844727,Murmansk
30001264,GOJ,RU,Russia,Europe,44.0,56.330001831054688,Nizhny Novgorod
30001381,PES,RU,Russia,Europe,34.3300018310547,61.8199996948242,Petrozavodsk
30001537,,RU,Russia,Europe,39.451217651367188,57.201759338378906,Rostov
30001717,LED,RU,Russia,Europe,30.333297729492188,59.936611175537109,St Petersburg
30001861,ULY,RU,Russia,Europe,48.4000015258789,54.3300018310547,Ulyanovsk
30001918,VOG,RU,Russia,Europe,44.4799995422363,48.7099990844727,Volgograd
90485674,MRV,RU,Russia,Europe,43.1300010681152,44.2099990844727,Mineralnye Vody
90486336,AAQ,RU,Russia,Europe,37.3310394287109,44.89501953125,Anapa
90486347,EGO,RU,Russia,Europe,36.6092109680176,50.5966110229492,Belgorod
90486348,NNM,RU,Russia,Europe,53.0820007324219,67.6691436767578,Naryan-Mar
90486351,AER,RU,Russia,Europe,39.7224884033203,43.6115989685059,Sochi
90486487,IWA,RU,Russia,Europe,40.9677886962891,56.9924087524414,Ivanovo
90486627,KZN,RU,Russia,Europe,49.1082000732422,55.7965393066406,Kazan
90487395,ASF,RU,Russia,Europe,48.0527191162109,46.3548889160156,Astrakhan
90487405,VOZ,RU,Russia,Europe,39.1974105834961,51.6600189208984,Voronezh
30000263,BRQ,CZ,Czech Republic,Europe,16.610000610351562,49.200000762939453,Brno
30001438,PRG,CZ,Czech Republic,Europe,14.4300003051758,50.0800018310547,Prague
90483073,KLV,CZ,Czech Republic,Europe,12.8699989318848,50.2400016784668,Karlovy Vary
90486070,OSR,CZ,Czech Republic,Europe,18.290248870849609,49.841270446777344,Ostrava
30000799,IJK,RU,Russia,Europe,53.2299995422363,56.8499984741211,Izhevsk
30001575,KUF,RU,Russia,Europe,50.1500015258789,53.2000007629395,Samara
30001295,OHD,MK,Macedonia,Europe,20.8199996948242,41.1199989318848,Ohrid
30001681,SKP,MK,Macedonia,Europe,21.4699993133545,42.0,Skopje
30001806,TIA,AL,Albania,Europe,19.8199996948242,41.3300018310547,Tirana
30000654,GRZ,AT,Austria,Europe,15.420000076293945,47.080001831054688,Graz
30000776,INN,AT,Austria,Europe,11.394700050354004,47.262691497802734,Innsbruck
30000900,KLU,AT,Austria,Europe,14.3100004196167,46.619998931884766,Klagenfurt
30001013,LNZ,AT,Austria,Europe,14.289999961853027,48.310001373291016,Linz
30001574,SZG,AT,Austria,Europe,13.0444097518921,47.8004989624023,Salzburg
30001903,VIE,AT,Austria,Europe,16.372777938842773,48.209205627441406,Vienna
30000286,BZG,PL,Poland,Europe,18.0100002288818,53.1199989318848,Bydgoszcz
30000613,GDN,PL,Poland,Europe,18.639999389648438,54.360000610351562,Gdansk
30000632,,PL,Poland,Europe,18.6700000762939,50.310001373291,Gliwice
30000863,KTW,PL,Poland,Europe,19.020000457763672,50.2599983215332,Katowice
30000915,KRK,PL,Poland,Europe,19.945060729980469,50.062240600585938,Krakow
30001020,LCJ,PL,Poland,Europe,19.459999084472656,51.770000457763672,Lodz
30001437,POZ,PL,Poland,Europe,16.8999996185303,52.4000015258789,Poznan
30001545,RZE,PL,Poland,Europe,22.0,50.0499992370605,Rzeszow
30001750,SZZ,PL,Poland,Europe,14.5299987792969,53.4300003051758,Szczecin
30001926,WAW,PL,Poland,Europe,21.020000457763672,52.2599983215332,Warsaw
30001968,WRO,PL,Poland,Europe,17.0300006866455,51.1100006103516,Wroclaw
30001993,OWZA,PL,Poland,Europe,19.9599990844727,49.2900009155273,Zakopane
90500770,WMI,PL,Poland,Europe,20.6924629211426,52.4462814331055,Nowy Dwór Mazowiecki
30000241,BWK,HR,Croatia,Europe,16.6800003051758,45.7000007629395,Brac Island
30000505,DBV,HR,Croatia,Europe,18.069999694824219,42.659999847412109,Dubrovnik
30001462,PUY,HR,Croatia,Europe,13.8411464691162,44.8696517944336,Pula
30001509,RJK,HR,Croatia,Europe,14.439998626709,45.3300018310547,Rijeka
30001698,SPU,HR,Croatia,Europe,16.450000762939453,43.5099983215332,Split
30001989,ZAD,HR,Croatia,Europe,15.2399988174438,44.1199989318848,Zadar
30001990,ZAG,HR,Croatia,Europe,15.9700002670288,45.7999992370605,Zagreb
90482272,OWBK,HR,Croatia,Europe,16.9476776123047,43.3584480285645,Baska Voda
90485245,OWPR,HR,Croatia,Europe,13.5977516174316,45.2266960144043,Porec
90485247,OWOP,HR,Croatia,Europe,14.3100004196167,45.3400001525879,Opatija
90485250,OWVO,HR,Croatia,Europe,15.7799987792969,43.7599983215332,Vodice
90485251,OWSN,HR,Croatia,Europe,15.8950681686401,43.7339935302734,Šibenik
90485347,OWMU,HR,Croatia,Europe,13.939998626709,44.8199996948242,Medulin
90485618,OWTG,HR,Croatia,Europe,16.2506580352783,43.5177230834961,Trogir
90485935,OWLO,HR,Croatia,Europe,14.2765598297119,45.2936515808105,Lovran
90485940,OWPM,HR,Croatia,Europe,15.9315996170044,43.587100982666,Primošten
90486077,OSI,HR,Croatia,Europe,18.6758995056152,45.5582008361816,Osijek
90486688,OWOM,HR,Croatia,Europe,16.6921558380127,43.4440650939941,Omis
90486689,OWBI,HR,Croatia,Europe,15.4444160461426,43.9378318786621,Biograd
90486696,III,HR,Croatia,Europe,14.2858009338379,45.3123054504395,Icici
90486697,OWKS,HR,Croatia,Europe,16.36549949646,43.5540008544922,Kastela
90486698,OWMK,HR,Croatia,Europe,17.0207386016846,43.2952423095703,Makarska
90486699,OWRB,HR,Croatia,Europe,14.1580352783203,45.0791625976562,Rabac
90486701,OWRN,HR,Croatia,Europe,13.6383514404297,45.0808410644531,Rovinj
90486705,OWVR,HR,Croatia,Europe,13.6068620681763,45.1504096984863,Vrsar
30000158,BSL,CH,Switzerland,Europe,7.5799999237060547,47.569999694824219,Basel
30000190,BRN,CH,Switzerland,Europe,7.440000057220459,46.950000762939453,Bern
30000614,GVA,CH,Switzerland,Europe,6.13995885848999,46.203811645507812,Geneva
30001043,LUG,CH,Switzerland,Europe,8.9533977508544922,46.003589630126953,Lugano
30002000,ZRH,CH,Switzerland,Europe,8.53999900817871,47.3800010681152,Zurich
30002002,QFB,CH,Switzerland,Europe,7.061248779296875,46.722148895263672,Freiburg
90486061,ACH,CH,Switzerland,Europe,9.55113410949707,47.4899635314941,Altenrhein
90486476,YVA,KM,Comoros,Africa,43.2550010681152,-11.700400352478,Moroni
30000908,ROR,PW,Palau,Australia and oceania,134.479187011719,7.34195184707642,Koror
30000007,ABJ,CI,Ivory Coast,Africa,-4.03000020980835,5.32999992370605,Abidjan
30001976,ASK,CI,Ivory Coast,Africa,-5.28,6.82,Yamoussoukro
30000046,ALG,DZ,Algeria,Africa,3.03999996185303,36.7700004577637,Algiers
30000077,AAE,DZ,Algeria,Africa,7.76000022888184,36.9099998474121,Annaba
30000209,BSK,DZ,Algeria,Africa,5.72687196731567,34.8568305969238,Biskra
30001304,ORN,DZ,Algeria,Africa,-0.637093007564545,35.7051086425781,Oran
90481766,BJA,DZ,Algeria,Africa,5.07808923721313,36.756721496582,Bejaia
90481775,CZL,DZ,Algeria,Africa,6.59999895095825,36.3600006103516,Constantine
90481780,DJG,DZ,Algeria,Africa,9.48483,24.554291,Djanet
90481785,TMR,DZ,Algeria,Africa,5.52277994155884,22.7849998474121,Tamanrasset
90481790,HME,DZ,Algeria,Africa,6.07281,31.679279,Hassi Messaoud
90481795,BLJ,DZ,Algeria,Africa,6.172292,35.557152,Batna
90486164,QSF,DZ,Algeria,Africa,5.40719985961914,36.1885986328125,Sétif
90486165,QAS,DZ,Algeria,Africa,1.32700002193451,36.1651000976562,Chlef
90486166,TLM,DZ,Algeria,Africa,-1.31529998779297,34.8791999816895,Tlemcen
90486323,NIM,NE,Niger,Africa,2.11570000648499,13.5164003372192,Niamey
90486500,INZ,DZ,Algeria,Africa,2.50139999389648,27.1949996948242,In Salah
90486501,VVZ,DZ,Algeria,Africa,8.47850036621094,26.4820995330811,Illizi
90486502,OGX,DZ,Algeria,Africa,5.31666707992554,31.9500007629395,Ouargla
90486503,GJL,DZ,Algeria,Africa,5.7661018371582,36.8218994140625,Jijel
90486504,GHA,DZ,Algeria,Africa,3.67230010032654,32.4936981201172,Ghardaia
90486505,ELU,DZ,Algeria,Africa,5.92578125,34.1251525878906,El Oued
90486507,IAM,DZ,Algeria,Africa,9.5496997833252,28.0471992492676,In Amenas
90486509,TMX,DZ,Algeria,Africa,0.233600005507469,29.2583999633789,Timimoun
90486510,TGR,DZ,Algeria,Africa,6.07310009002686,33.1119003295898,Touggourt
90486512,CBH,DZ,Algeria,Africa,-2.21490001678467,31.6179008483887,Bechar
90486513,TIN,DZ,Algeria,Africa,-8.15719985961914,27.6830997467041,Tindouf
90486514,ELG,DZ,Algeria,Africa,2.87788009643555,30.5540409088135,El Golea
90486519,AZR,DZ,Algeria,Africa,-0.289499998092651,27.8701000213623,Adrar
30000409,CKY,GN,Guinea,Africa,-13.6700000762939,9.55000019073486,Conakry
30000846,EBB,UG,Uganda,Africa,32.580001,0.319999,Kampala
30001160,MBA,KE,Kenya,Africa,39.66,-4.04,Mombasa
30001214,WIL,KE,Kenya,Africa,36.8199996948242,-1.28999900817871,Nairobi
90486387,ALU,SO,Somalia,Africa,50.7299995422363,11.9499998092651,Alula
90487440,MYD,KE,Kenya,Africa,40.1092491149902,-3.21643400192261,Malindi
90487441,KIS,KE,Kenya,Africa,34.7473297119141,-0.095160000026226,Kisumu
90482314,BEN,LY,Libya,Africa,20.069999,32.119998,Benghazi
90486325,TIP,LY,Libya,Africa,13.1897001266479,32.882999420166,Tripoli
30000179,TZA,BZ,Belize,Middle America,-88.186653137207,17.4977130889893,Belize City
30000156,BAQ,CO,Colombia,South America,-74.8000030517578,10.960000038147,Barranquilla
30000224,BOG,CO,Colombia,South America,-74.0899963378906,4.63000011444092,Bogota
30000271,BGA,CO,Colombia,South America,-73.129997253418,7.13000011444092,Bucaramanga
30000296,CLO,CO,Colombia,South America,-76.5199966430664,3.44000005722046,Cali
30000320,CTG,CO,Colombia,South America,-75.5,10.3999996185303,Cartagena
30000434,CUC,CO,Colombia,South America,-72.5100021362305,7.88000011444092,Cucuta
30000996,LET,CO,Colombia,South America,-69.9400024414062,-4.21999883651733,Leticia
30001084,MZL,CO,Colombia,South America,-75.5199966430664,5.05999994277954,Manizales
30001115,MDE,CO,Colombia,South America,-75.5400009155273,6.28999900817871,Medellin
30001356,PSO,CO,Colombia,South America,-77.2799987792969,1.21000003814697,Pasto
30001371,PEI,CO,Colombia,South America,-75.6800003051758,4.80999898910522,Pereira
30001514,RCH,CO,Colombia,South America,-72.9100036621094,11.5399990081787,Riohacha
30001578,ADZ,CO,Colombia,South America,-81.7197418212891,12.5408239364624,San Andres Island
30001882,VUP,CO,Colombia,South America,-73.25,10.4799995422363,Valledupar
90486489,AXM,CO,Colombia,South America,-75.7041702270508,4.5286111831665,Armenia
90498020,NVA,CO,Colombia,South America,-75.3002090454102,2.93708348274231,Neiva
90500749,MTR,CO,Colombia,South America,-75.883171081543,8.74932289123535,Montería
90500750,SMR,CO,Colombia,South America,-74.201553344726562,11.247113227844238,Santa Marta
30000428,CZM,MX,Mexico,Middle America,-86.8791732788086,20.4286441802979,Cozumel
80462029,CUN,MX,Mexico,Middle America,-86.830001831054688,21.170000076293945,Cancun
30000331,CYB,KY,Cayman Islands,Atlantic ocean islands,-79.8085098266602,19.7190322875977,Cayman Brac Island
30000647,GCM,KY,Cayman Islands,Atlantic ocean islands,-81.2408676147461,19.3221702575684,Grand Cayman Island
30000436,CGB,BR,Brazil,South America,-56.0900001525879,-15.6099996566772,Cuiaba
30000035,ABQ,US,USA,North America,-106.64924621582,35.0841979980469,Albuquerque
30000106,ASE,US,USA,North America,-106.816741943359,39.1911582946777,Aspen
30000200,BIL,US,USA,North America,-108.5,45.783332824707,Billings
30000225,BOI,US,USA,North America,-116.200637817383,43.6129875183105,Boise
30000240,BZN,US,USA,North America,-111.037780761719,45.6797218322754,Bozeman
30000400,COS,US,USA,North America,-104.820831298828,38.8338890075684,Colorado Springs
30000472,DEN,US,USA,North America,-104.983917236328,39.7391090393066,Denver
30000513,DRO,US,USA,North America,-107.877326965332,37.2750205993652,Durango
30000530,ELP,US,USA,North America,-106.486122131348,31.7585296630859,El Paso
30000559,FMN,US,USA,North America,-108.218719482422,36.7280502319336,Farmington
30000574,FNL,US,USA,North America,-105.07267,40.397591,Fort Collins / Loveland
30000655,GTF,US,USA,North America,-111.300003051758,47.5002784729004,Great Falls
30000711,HLN,US,USA,North America,-112.027030944824,46.5958061218262,Helena
30000759,IDA,US,USA,North America,-112.033332824707,43.466667175293,Idaho Falls
30000805,JAC,US,USA,North America,-110.761337280273,43.4803199768066,Jackson Hole
30000842,FCA,US,USA,North America,-114.311370849609,48.1961288452148,Kalispell
30001152,MSO,US,USA,North America,-113.993339538574,46.8707389831543,Missoula
30001487,RAP,US,USA,North America,-103.23055267334,44.0805549621582,Rapid City
30001553,STG,US,USA,North America,-113.568412780762,37.0965270996094,St George
30001570,SLC,US,USA,North America,-111.890281677246,40.7608337402344,Salt Lake City
30001611,SAF,US,USA,North America,-105.937225341797,35.6869430541992,Santa Fe
30001670,SDY,US,USA,North America,-104.161033630371,47.7119560241699,Sidney
90486169,COD,US,USA,North America,-109.023796081543,44.5201950073242,Cody
90486369,AZA,US,USA,North America,-111.822982788086,33.4150199890137,Mesa
30000619,GEO,GY,Guyana,South America,-58.1599998474121,6.78999900817871,Georgetown
30000332,CYO,CU,Cuba,Atlantic ocean islands,-81.5461120605469,21.6163883209228,Cayo Largo Del Sur
30000704,UPB,CU,Cuba,Atlantic ocean islands,-82.388557434082,23.1168003082275,Havana
30001619,SCU,CU,Cuba,Atlantic ocean islands,-75.828987121582,20.0288906097412,Santiago
30001886,VRA,CU,Cuba,Atlantic ocean islands,-81.3600006103516,23.1200008392334,Varadero
80462041,HOG,CU,Cuba,Atlantic ocean islands,-76.25,20.8899993896484,Holguin
90482497,CMW,CU,Cuba,Atlantic ocean islands,-77.9135437011719,21.3859004974365,Camaguey
90486710,SNU,CU,Cuba,Atlantic ocean islands,-79.9667358398438,22.4126796722412,Santa Clara
30000390,CBB,BO,Bolivia,South America,-66.169998,-17.379999,Cochabamba
30000938,LPB,BO,Bolivia,South America,-68.1500015258789,-16.5,La Paz
30001607,VVI,BO,Bolivia,South America,-63.2099990844727,-17.7700004577637,Santa Cruz
30000091,AJU,BR,Brazil,South America,-37.07,-10.91,Aracaju
90483267,MCZ,BR,Brazil,South America,-35.75,-9.64999866485596,Maceio
30001076,PLL,BR,Brazil,South America,-60.0200004577637,-3.11999893188477,Manaus
30001751,TBT,BR,Brazil,South America,-69.9300003051758,-4.25,Tabatinga
30000381,CME,MX,Mexico,Middle America,-91.8300018310547,18.6299991607666,Ciudad Del Carmen
30001131,MID,MX,Mexico,Middle America,-89.620002746582,20.9699993133545,Merida
30000202,NSB,BS,Bahamas,Atlantic ocean islands,-79.2647399902344,25.7003784179688,Bimini
30000589,FPO,BS,Bahamas,Atlantic ocean islands,-78.6399993896484,26.5400009155273,Freeport
30000617,GGT,BS,Bahamas,Atlantic ocean islands,-75.7799987792969,23.5200004577637,George Town
30000643,GHB,BS,Bahamas,Atlantic ocean islands,-76.3107147216797,25.2525730133057,Governors Harbour
30001028,LGI,BS,Bahamas,Atlantic ocean islands,-75.0961532592773,23.176420211792,Long Island
30001230,NAS,BS,Bahamas,Atlantic ocean islands,-77.3300018310547,25.0599994659424,Nassau
30001597,ZSA,BS,Bahamas,Atlantic ocean islands,-74.5313873291016,24.0638885498047,San Salvador
30001341,PTY,PA,Panama,Middle America,-79.518791198730469,8.9942693710327148,Panama City
30001490,REC,BR,Brazil,South America,-34.9199981689453,-8.07999897003174,Recife
30001495,YQR,CA,Canada,North America,-104.611297607422,50.4525566101074,Regina
30001632,YXE,CA,Canada,North America,-106.645942687988,52.131420135498,Saskatoon
90482621,CKG,CN,China,Asia,106.551559448242,29.563009262085,Chongqing
30000732,HKG,HK,Hong Kong,Asia,114.136871337891,22.357536315918,Hong Kong
30000818,JRS,IL,Israel,Asia Minor,35.2200012207031,31.7800006866455,Jerusalem
30001380,PKC,RU,Russia,Europe,158.649993896484,53.0166664123535,Petropavlovsk Kamchatsky
30001672,XSP,SG,Singapore,Asia,103.849998474121,1.29999899864197,Singapore
30001905,VTE,LA,Lao,Asia,102.610000610352,17.9699993133545,Vientiane
90490017,LPQ,LA,Lao,Asia,102.141578674316,19.8847503662109,Luang Prabang
30000176,BFS,GB,United Kingdom,Europe,-5.92999982833862,54.5999984741211,Belfast
30001025,LDY,GB,United Kingdom,Europe,-7.32999992370605,55.0,Londonderry
30001759,TLL,EE,Estonia,Europe,24.7399997711182,59.439998626709,Tallinn
30000865,KUN,LT,Lithuania,Europe,23.9099998474121,54.9000015258789,Kaunas
30001910,VNO,LT,Lithuania,Europe,25.2700004577637,54.7000007629395,Vilnius
80493509,DZA,YT,Mayotte,Indian ocean islands,45.25,-12.770000457763672,Dzaoudzi
30001725,RUN,RE,Reunion,Indian ocean islands,55.451087951660156,-20.880786895751953,St Denis De La Reunion
90483746,ZSE,RE,Reunion,Indian ocean islands,55.5833320617676,-21.25,Saint Pierre
30000911,KSA,FM,Micronesia,Australia and oceania,162.98149108886719,5.3095617294311523,Kosrae
30001066,MAJ,MH,Marshall Islands,Australia and oceania,171.185775756836,7.11642122268677,Majuro
30001279,NOU,NC,New Caledonia,Australia and oceania,166.440002441406,-22.2700004577637,Noumea
30001425,VLI,VU,Vanuatu,Australia and oceania,168.320999145508,-17.7403907775879,Port Vila
30001404,PNI,FM,Micronesia,Australia and oceania,158.22314453125,6.88480520248413,Ponape
30001539,ROP,MP,Northern Mariana Islands,Australia and oceania,145.214874267578,14.1508750915527,Rota
30001563,SPN,MP,Northern Mariana Islands,Australia and oceania,145.764999389648,15.1934576034546,Saipan
30001345,PPT,PF,French Polynesia,Australia and oceania,-149.55999755859375,-17.520000457763672,Papeete
90482383,BOB,PF,French Polynesia,Australia and oceania,-151.743362426758,-16.5045738220215,Bora Bora
90483013,TUB,PF,French Polynesia,Australia and oceania,-149.476501464844,-23.3825302124023,Huahine
30000214,BLZ,MW,Malawi,Africa,34.990002,-15.79,Blantyre
30001006,LLW,MW,Malawi,Africa,33.799999,-13.97,Lilongwe
30000486,MHI,DJ,Djibouti,Africa,43.1458511352539,11.5885992050171,Djibouti
30000948,EUN,MA,Morocco,Africa,-13.203332901001,27.1536102294922,Laayoun
90486326,VIL,EH,Western Sahara,Africa,-15.931400299072266,23.715799331665039,Dakhla
90486171,HGS,SL,Sierra Leone,Africa,-13.26589012146,8.46965980529785,Freetown
30000598,GBE,BW,Botswana,Africa,25.909999,-24.649999,Gaborone
30000858,BBK,BW,Botswana,Africa,25.0,-18.5,Kasane
30001107,MUB,BW,Botswana,Africa,23.4200000762939,-19.9899997711182,Maun
30000529,ELF,SD,Sudan,Africa,25.35,13.63,El Fasher
30000882,KRT,SD,Sudan,Africa,32.48,15.65,Khartoum
30000159,BAN,CD,Democratic Republic of the Congo,Africa,26.66,-4.45,Basongo
30000893,NLO,CD,Democratic Republic of the Congo,Africa,15.3199987411499,-4.30999898910522,Kinshasa
90486170,ROB,LR,Liberia,Africa,-10.7943000793457,6.30000019073486,Monrovia
30001207,NDJ,TD,Chad,Africa,15.05,12.11,N Djamena
90486674,TMS,ST,Sao Tome and Principe,Atlantic ocean islands,6.73110008239746,0.335999995470047,Sao Tome
30001042,LUD,NA,Namibia,Africa,15.15,-26.639999,Luderitz
30001193,MPA,NA,Namibia,Africa,24.2666664123535,-17.5,Mpacha
30001746,SWP,NA,Namibia,Africa,14.52,-22.67,Swakopmund
30001925,WVB,NA,Namibia,Africa,14.5,-22.950001,Walvis Bay
30001957,WDH,NA,Namibia,Africa,17.09,-22.559999,Windhoek
30001555,ANU,AG,Antigua and Barbuda,Atlantic ocean islands,17.1175289154053,-61.8455581665039,Saint John's
30000150,BLA,VE,Venezuela,South America,-64.7200012207031,10.1300001144409,Barcelona
30000154,BRM,VE,Venezuela,South America,-69.3000030517578,10.0500001907349,Barquisimeto
30000312,LAG,VE,Venezuela,South America,-66.9300003051758,10.539999961853,Caracas
30000972,LSP,VE,Venezuela,South America,-72.418830871582,10.0536098480225,Las Piedras
30001089,MAR,VE,Venezuela,South America,-71.6600036621094,10.7299995422363,Maracaibo
30001413,PMV,VE,Venezuela,South America,-63.8499984741211,10.960000038147,Porlamar
30001456,PZO,VE,Venezuela,South America,-62.7177391052246,8.3162784576416,Puerto Ordaz
30001623,STD,VE,Venezuela,South America,-70.6920394897461,8.87021541595459,Santo Domingo
30001879,VLN,VE,Venezuela,South America,-67.9800033569336,10.2299995422363,Valencia
30000330,CAY,GF,French Guyana,South America,-52.3266792297363,4.92258834838867,Cayenne
30000006,ABR,US,USA,North America,-91.3432464599609,34.6033630371094,Aberdeen
30000061,AMA,US,USA,North America,-101.830833435059,35.2219429016113,Amarillo
30000122,AUS,US,USA,North America,-97.7417602539062,30.2667484283447,Austin
30000163,BTR,US,USA,North America,-91.1547317504883,30.449239730835,Baton Rouge
30000166,BPT,US,USA,North America,-94.1264801025391,30.0800876617432,Beaumont
30000207,BHM,US,USA,North America,-86.8024978637695,33.5205574035645,Birmingham
30000261,TRI,US,USA,North America,-82.1880035400391,36.5950012207031,Bristol
30000335,CID,US,USA,North America,-91.6443634033203,42.0078811645508,Cedar Rapids
30000368,CHI,US,USA,North America,-87.648193359375,41.849838256835938,Chicago
30000420,CRP,US,USA,North America,-97.3962478637695,27.8005084991455,Corpus Christi
30000448,RBD,US,USA,North America,-96.8000030517578,32.783332824707,Dallas
30000473,IKV,US,USA,North America,-93.6089706420898,41.6003494262695,Des Moines
30000507,DLH,US,USA,North America,-92.1004486083984,46.7866020202637,Duluth
30000558,FAR,US,USA,North America,-96.7894439697266,46.8772201538086,Fargo
30000576,FOD,US,USA,North America,-94.167801,42.497269,Fort Dodge
30000649,GRI,US,USA,North America,-98.3420104980469,40.9263954162598,Grand Island
30000656,GRB,US,USA,North America,-88.0197219848633,44.5191688537598,Green Bay
30000675,GPT,US,USA,North America,-89.0927810668945,30.3672218322754,Gulfport
30000742,HOU,US,USA,North America,-95.363052368164,29.7630558013916,Houston
30000749,HSV,US,USA,North America,-86.5976715087891,34.7334289550781,Huntsville / Decatur
30000803,JAN,US,USA,North America,-90.1849212646485,32.2987060546875,Jackson
30000849,MCI,US,USA,North America,-94.629531860351562,39.114578247070312,Kansas City
30000936,LSE,US,USA,North America,-91.2397384643555,43.8011474609375,La Crosse
30000953,LFT,US,USA,North America,-91.8156814575195,30.0001792907715,Lafayette / New Iberia
30000968,LRD,US,USA,North America,-99.5072250366211,27.5061111450195,Laredo
30001011,LNK,US,USA,North America,-96.6939392089844,40.8125114440918,Lincoln
30001016,LIT,US,USA,North America,-92.2894439697266,34.7463874816895,Little Rock
30001039,LBB,US,USA,North America,-101.85424041748,33.5757789611816,Lubbock
30001059,MSN,US,USA,North America,-89.4011077880859,43.073055267334,Madison
30001081,MHK,US,USA,North America,-96.5716705322266,39.1836090087891,Manhattan
30001112,MFE,US,USA,North America,-98.2300109863281,26.2034072875977,Mc Allen / Mission
30001125,MEM,US,USA,North America,-90.0488891601562,35.1494445800781,Memphis
30001133,MEI,US,USA,North America,-88.7036590576172,32.3641586303711,Meridian
30001139,MDD,US,USA,North America,-102.078010559082,31.9974498748779,Midland
30001146,MWC,US,USA,North America,-87.9063873291016,43.038890838623,Milwaukee
30001147,MSP,US,USA,North America,-93.2636108398438,44.9799995422363,Minneapolis
30001148,MOT,US,USA,North America,-101.296669006348,48.2383346557617,Minot
30001155,MOB,US,USA,North America,-88.0427856445312,30.6943817138672,Mobile
30001159,MLI,US,USA,North America,-90.5152282714844,41.5067291259766,Moline
30001175,MXF,US,USA,North America,-86.3000030517578,32.3666687011719,Montgomery
30001229,BNA,US,USA,North America,-86.7844467163086,36.1658325195312,Nashville
30001246,NEW,US,USA,North America,-90.0751190185547,29.9543895721436,New Orleans
30001299,PWA,US,USA,North America,-97.51611328125,35.4674987792969,Oklahoma City
30001301,OMA,US,USA,North America,-95.9375,41.2586097717285,Omaha
30001342,PFN,US,USA,North America,-85.6603164672852,30.1571006774902,Panama City
30001366,PNS,US,USA,North America,-87.2169418334961,30.4211101531982,Pensacola
30001369,PIA,US,USA,North America,-89.5888900756836,40.6936111450195,Peoria
30001387,PIR,US,USA,North America,-100.350967407227,44.3683166503906,Pierre
30001523,RST,US,USA,North America,-92.4629974365234,44.0226936340332,Rochester
30001581,SSF,US,USA,North America,-98.4933319091797,29.4238891601562,San Antonio
30001674,FSD,US,USA,North America,-96.6999969482422,43.5499992370605,Sioux Falls
30001700,SGF,US,USA,North America,-93.2922897338867,37.2090034484863,Springfield
30001711,SUS,US,USA,North America,-90.1977767944336,38.6272201538086,St Louis
30001790,TXK,US,USA,North America,-94.0376892089844,33.4417915344238,Texarkana
30001842,TUL,US,USA,North America,-95.9925003051758,36.1538887023926,Tulsa
30001846,TUP,US,USA,North America,-88.7033309936523,34.2574996948242,Tupelo
30001883,VPS,US,USA,North America,-86.5002517700195,30.5085906982422,Valparaiso
30001901,VCT,US,USA,North America,-97.0036010742188,28.8052673339844,Victoria
30001948,ICT,US,USA,North America,-97.3361129760742,37.6888885498047,Wichita
90486130,GRK,US,USA,North America,-97.7548065185547,31.2464752197266,Fort Hood
90486365,DIK,US,USA,North America,-102.784561157227,46.8887329101562,Dickinson
90489226,MKC,US,USA,North America,-94.5785675048828,39.0997276306152,Kansas City
30000228,BON,AN,Netherlands Antilles,Atlantic ocean islands,-68.2614898681641,12.2001066207886,Bonaire
30001547,SAB,AN,Netherlands Antilles,Atlantic ocean islands,-63.2316093444824,17.6393909454346,Saba Island
30001713,SXM,SX,Sint-Maarten,Atlantic ocean islands,-63.071479797363281,18.045665740966797,St Maarten
30001714,SFG,MF,Saint Martin,Atlantic ocean islands,-63.073631286621094,18.052591323852539,St Martin
30001952,CUR,AN,Netherlands Antilles,Atlantic ocean islands,-68.9300003051758,12.1000003814697,Willemstad
30000769,JAV,GL,Greenland,Europe,-51.1100006103516,69.2099990844727,Ilulissat
30000847,SFJ,GL,Greenland,Europe,-50.689998626709,67.0,Kangerlussuaq
30001284,GOH,GL,Greenland,Europe,-51.7299995422363,64.1800003051758,Nuuk
30001707,GND,GD,Grenada,Atlantic ocean islands,-61.7487983703613,12.0560970306396,St Georges
30000353,YYG,CA,Canada,North America,-63.1356506347656,46.2585868835449,Charlottetown
30000682,YHZ,CA,Canada,North America,-63.5999984741211,44.6500015258789,Halifax
30001163,YQM,CA,Canada,North America,-64.7757797241211,46.0936965942383,Moncton
30001554,YSJ,CA,Canada,North America,-66.064811706543,45.2732162475586,St John
30001748,YQY,CA,Canada,North America,-60.1955337524414,46.1363258361816,Sydney
30000784,YFB,CA,Canada,North America,-68.5169677734375,63.7466926574707,Iqaluit
30000892,KIN,JM,Jamaica,Atlantic ocean islands,-76.8000030517578,17.9899997711182,Kingston
30001170,MBJ,JM,Jamaica,Atlantic ocean islands,-77.9199981689453,18.4699993133545,Montego Bay
30001075,MGA,NI,Nicaragua,Middle America,-86.2699966430664,12.1499996185303,Managua
30001452,PUZ,NI,Nicaragua,Middle America,-83.389999,14.029999,Puerto Cabezas
30000565,FLG,US,USA,North America,-111.65055847168,35.198055267334,Flagstaff
30000577,FHU,US,USA,North America,-110.36258,31.55096,Fort Huachuca / Sierra Vista
30001385,PHX,US,USA,North America,-112.073333740234,33.4483337402344,Phoenix
30001840,TUS,US,USA,North America,-110.925834655762,32.2216682434082,Tucson
30001135,MXL,MX,Mexico,Middle America,-115.470001220703,32.6500015258789,Mexicali
30001802,TIJ,MX,Mexico,Middle America,-117.019996643066,32.5299987792969,Tijuana
30000891,YGK,CA,Canada,North America,-76.485954284668,44.2311706542969,Kingston
30000899,YKF,CA,Canada,North America,-80.4777450561523,43.4343109130859,Kitchener
30001023,YXU,CA,Canada,North America,-81.2460403442383,42.979362487793,London
30001317,YRO,CA,Canada,North America,-75.6968307495117,45.4206237792969,Ottawa
30001737,YSB,CA,Canada,North America,-80.9906997680664,46.4933166503906,Sudbury
30001800,YQT,CA,Canada,North America,-89.2455444335938,48.4069442749023,Thunder Bay
30001816,YTO,CA,Canada,North America,-79.3816680908203,43.6525001525879,Toronto
30001958,YQG,CA,Canada,North America,-82.9933319091797,42.2926750183105,Windsor
30001818,TOV,VG,British Virgin Islands,Atlantic ocean islands,-64.6354904174805,18.4268207550049,Tortola
30001384,PNH,KH,Cambodia,Asia,104.917442321777,11.5588312149048,Phnom Penh
80477433,REP,KH,Cambodia,Asia,104.040870666504,13.4690532684326,Siem Reap
30001858,ULN,MN,Mongolia,Asia,106.90554,47.921378,Ulan Bator
90521892,HJT,MN,Mongolia,Asia,102.766670227051,46.8974990844727,Khujirt
30001407,PDL,PT,Portugal,Europe,-25.67,37.75,Ponta Delgada
30001784,TER,PT,Portugal,Europe,-27.2069435119629,38.7222213745117,Terceira Island
90487446,HOR,PT,Portugal,Europe,-28.6272602081299,38.5426292419434,Horta
30000100,ACE,ES,Spain,Europe,-13.5500001907349,28.9599990844727,Arrecife
30000644,LPA,ES,Spain,Europe,-15.5474376678467,27.9202194213867,Gran Canaria
30001453,FUE,ES,Spain,Europe,-13.862207,28.496503,Puerto del Rosario
30001608,SPC,ES,Spain,Europe,-17.763963,28.683264,Santa Cruz de La Palma
30001609,,ES,Spain,Europe,-16.254856109619141,28.469810485839844,Santa Cruz de Tenerife
30001782,TCI,ES,Spain,Europe,-16.5208587646484,28.2922954559326,Tenerife
90486414,VDE,ES,Spain,Europe,-17.9150104522705,27.8094539642334,Valverde
30000555,FAE,FO,Faroe Islands,Europe,-6.931995,61.871979,Faeroe Islands
30001375,PER,AU,Australia,Australia and oceania,115.858589172363,-31.9554004669189,Perth
90482435,BME,AU,Australia,Australia and oceania,122.241455078125,-17.9551239013672,Broome
90483112,KNX,AU,Australia,Australia and oceania,128.738967895508,-15.7739028930664,Kununurra
30000178,BEG,RS,Serbia,Europe,20.5,44.830001831054688,Belgrade
90480913,PRN,KS,Kosovo,Europe,21.1646251678467,42.6723136901855,Pristina
30000085,ANR,BE,Belgium,Europe,4.3997225761413574,51.2205810546875,Antwerp
30000270,BRU,BE,Belgium,Europe,4.32999992370605,50.8300018310547,Brussels
30000346,CRL,BE,Belgium,Europe,4.4299988746643066,50.419998168945312,Charleroi
30001003,LGG,BE,Belgium,Europe,5.57000017166138,50.6399993896484,Liege
90482437,BEBG,BE,Belgium,Europe,3.22040200233459,51.2099800109863,Bruges
90482867,BEGN,BE,Belgium,Europe,3.72000002861023,51.0499992370606,Ghent
90483369,QMO,BE,Belgium,Europe,3.9300000667572,50.4500007629395,Mons
90483408,QNM,BE,Belgium,Europe,4.8699989318847656,50.470001220703125,Namur
90485630,OST,BE,Belgium,Europe,2.91337251663208,51.2254104614258,Ostend
30000135,SOB,HU,Hungary,Europe,17.7340431213379,46.8302688598633,Balaton
30000273,BUD,HU,Hungary,Europe,19.04075813293457,47.4984016418457,Budapest
30000463,DEB,HU,Hungary,Europe,21.6299991607666,47.5400009155273,Debrecen
30001285,IYN,HU,Hungary,Europe,21.7199993133545,47.9599990844727,Nyiregyhaza
90483865,OWSI,HU,Hungary,Europe,18.0599994659424,46.9000015258789,Siofok
90483939,QZD,HU,Hungary,Europe,20.1599998474121,46.2599983215332,Szeged
90483940,OWSF,HU,Hungary,Europe,18.4099998474121,47.2000007629395,Szekesfehervar
90485241,OWGY,HU,Hungary,Europe,17.6381492614746,47.6783103942871,Gyor
90485481,OWNK,HU,Hungary,Europe,16.9899997711182,46.4599990844727,Nagykanizsa
90487398,TIV,ME,Montenegro,Europe,18.7112674713135,42.4318771362305,Tivat
90487406,INI,RS,Serbia,Europe,21.8963279724121,43.3193817138672,Niš
90501373,,HU,Hungary,Europe,18.973388671875,47.782886505127,Visegrád
30000898,KIV,MD,Moldova,Europe,28.841550827026367,47.026859283447266,Kishinev
30000713,HEL,FI,Finland,Europe,24.940000534057617,60.169998168945312,Helsinki
30000871,KEM,FI,Finland,Europe,24.5499992370605,65.7600021362305,Kemi
30000906,KOK,FI,Finland,Europe,23.125034332275391,63.841499328613281,Kokkola / Pietarsaari
30000928,KUO,FI,Finland,Europe,27.7000007629395,62.9000015258789,Kuopio
30001092,MHQ,FI,Finland,Europe,19.9493503570557,60.0973091125488,Mariehamn
30001322,OUL,FI,Finland,Europe,25.4699993133545,65.0199966430664,Oulu
30001412,POR,FI,Finland,Europe,21.7700004577637,61.4900016784668,Pori
30001638,SVL,FI,Finland,Europe,28.9099998474121,61.8699989318848,Savonlinna
30001761,TMP,FI,Finland,Europe,23.7600002288818,61.5200004577637,Tampere
30001848,TKU,FI,Finland,Europe,22.25,60.4500007629395,Turku
30001870,VAA,FI,Finland,Europe,21.6100006103516,63.0999984741211,Vaasa
30001888,VRK,FI,Finland,Europe,27.9099998474121,62.3199996948242,Varkaus
90483066,JYV,FI,Finland,Europe,25.7483005523682,62.2451515197754,Jyvaskyla
90483690,RVN,FI,Finland,Europe,25.7000007629395,66.4899978637695,Rovaniemi
90485816,IVL,FI,Finland,Europe,27.5383262634277,68.6594924926758,Ivalo
90486100,ENF,FI,Finland,Europe,23.6350555419922,68.3865356445312,Enontekio
90486101,KTT,FI,Finland,Europe,24.9060249328613,67.6513442993164,Kittila
90486317,KAO,FI,Finland,Europe,29.170654296875,65.968391418457,Kuusamo
90486467,KAJ,FI,Finland,Europe,27.7262210845947,64.2271270751953,Kajaani
90487388,LPP,FI,Finland,Europe,28.1869564056396,61.0584411621094,Lappeenranta
90487397,TAY,EE,Estonia,Europe,26.7148284912109,58.3708839416504,Tartu
30001629,SJJ,BA,Bosnia Herzegovina,Europe,18.3799991607666,43.8499984741211,Sarajevo
30001069,MLE,MV,Maldives,Indian ocean islands,73.5,4.17000007629395,Male
90482000,BJM,BI,Burundi,Africa,29.35,-3.369999,Bujumbura
30001157,MGQ,SO,Somalia,Africa,45.330002,2.049999,Mogadishu
30001793,AXA,AI,Anguilla,Atlantic ocean islands,-63.0499992370605,18.2199993133545,The Valley
30000107,ASU,PY,Paraguay,South America,-57.6300010681152,-25.2999992370605,Asuncion
30000257,BGI,BB,Barbados,Atlantic ocean islands,-59.6100006103516,13.1099996566772,Bridgetown
30000489,DOM,DM,Dominica,Atlantic ocean islands,-61.3709754943848,15.4149990081787,Dominica
30000295,YYC,CA,Canada,North America,-114.080795288086,51.0398788452148,Calgary
30000430,YXC,CA,Canada,North America,-115.761581420898,49.518009185791,Cranbrook
30000524,YEA,CA,Canada,North America,-113.493682861328,53.5409355163574,Edmonton
30000578,YMM,CA,Canada,North America,-111.380340576172,56.7263793945312,Fort Mcmurray
30000653,YQU,CA,Canada,North America,-118.792472839355,55.1679458618164,Grande Prairie
30001117,YXH,CA,Canada,North America,-110.676856994629,50.0301933288574,Medicine Hat
30000437,CUL,MX,Mexico,Middle America,-107.389999389648,24.7999992370605,Culiacan
30000939,LAP,MX,Mexico,Middle America,-110.319999694824,24.1399993896484,La Paz
30001035,LMM,MX,Mexico,Middle America,-109.0,25.7900009155273,Los Mochis
30001111,MZT,MX,Mexico,Middle America,-106.419998168945,23.2199993133545,Mazatlan
30001589,SJD,MX,Mexico,Middle America,-109.702201843262,23.0530700683594,San Jose Del Cabo
30001719,FSP,PM,St Pierre and Miquelon,Atlantic ocean islands,-56.1968154907227,46.7877731323242,St Pierre
30000131,YBC,CA,Canada,North America,-68.1945495605469,49.2143249511719,Baie-Comeau
30000610,YGP,CA,Canada,North America,-64.4786834716797,48.902946472168,Gaspe
30000763,YGR,CA,Canada,North America,-61.9114227294922,47.3896255493164,Iles De La Madeleine
30001165,YYY,CA,Canada,North America,-68.1916198730469,48.5827407836914,Mont Joli
30001179,YMQ,CA,Canada,North America,-73.5542449951172,45.5088653564453,Montreal
30001470,YQB,CA,Canada,North America,-71.2449264526367,46.8020706176758,Quebec
30000027,CAK,US,USA,North America,-81.5188980102539,41.081356048584,Akron / Canton
30000032,ABY,US,USA,North America,-84.1557388305664,31.5785064697266,Albany
30000033,ALB,US,USA,North America,-73.756233215332,42.6525802612305,Albany
30000104,AVL,US,USA,North America,-82.5540161132812,35.600944519043,Asheville
30000110,AHN,US,USA,North America,-83.3823623657227,33.9558029174805,Athens
30000112,PDK,US,USA,North America,-84.3877105712891,33.7486572265625,Atlanta
30000136,BWI,US,USA,North America,-76.6123199462891,39.2904815673828,Baltimore
30000144,BGR,US,USA,North America,-68.7778167724609,44.8011817932129,Bangor
30000148,BHB,US,USA,North America,-68.204346,44.387951,Bar Harbor
30000233,BOS,US,USA,North America,-71.0602798461914,42.3583335876465,Boston
30000275,BUF,US,USA,North America,-78.8786087036133,42.8863906860352,Buffalo
30000347,CHS,US,USA,North America,-79.9322280883789,32.7836685180664,Charleston
30000351,QWG,US,USA,North America,-80.8433303833008,35.2269439697266,Charlotte
30000352,CHO,US,USA,North America,-78.4769439697266,38.029167175293,Charlottesville
30000358,CHA,US,USA,North America,-85.3097229003906,35.0455551147461,Chattanooga
30000379,LUK,US,USA,North America,-84.4566802978516,39.161937713623,Cincinnati
30000386,CLE,US,USA,North America,-81.6952972412109,41.498779296875,Cleveland
30000401,CUB,US,USA,North America,-81.0348129272461,34.0000190734863,Columbia
30000403,CSG,US,USA,North America,-84.9868011474609,32.4599494934082,Columbus
30000460,DAY,US,USA,North America,-84.1916656494141,39.7588882446289,Dayton
30000461,DAB,US,USA,North America,-81.0230560302734,29.2105560302734,Daytona Beach
30000475,DTT,US,USA,North America,-83.0460205078125,42.3315086364746,Detroit
30000537,ELM,US,USA,North America,-76.8076477050781,42.0899429321289,Elmira / Corning
30000561,FAY,US,USA,North America,-78.8782730102539,35.0524826049805,Fayetteville
30000566,FNT,US,USA,North America,-83.6874542236328,43.0125274658203,Flint
30000568,FLO,US,USA,North America,-79.7627792358398,34.1952781677246,Florence
30000579,RSW,US,USA,North America,-81.8724975585938,26.6402778625488,Fort Myers
30000584,FWA,US,USA,North America,-85.1288909912109,41.1305541992188,Fort Wayne
30000587,FKL,US,USA,North America,-79.8313827514648,41.397834777832,Franklin
30000594,FXE,US,USA,North America,-80.1434478759766,26.1221885681152,Ft Lauderdale
30000599,GNV,US,USA,North America,-82.3249969482422,29.651388168335,Gainesville
30000651,GRR,US,USA,North America,-85.6680526733398,42.9633331298828,Grand Rapids
30000658,GSO,US,USA,North America,-79.7919769287109,36.0726356506348,Greensboro / High Point
30000660,GSP,US,USA,North America,-82.3942413330078,34.8525886535644,Greenville / Greer
30000697,HAR,US,USA,North America,-76.8847198486328,40.273609161377,Harrisburg
30000700,HFD,US,USA,North America,-72.6855545043945,41.7636108398438,Hartford
30000774,IND,US,USA,North America,-86.1580810546875,39.7678985595703,Indianapolis
30000794,ISP,US,USA,North America,-73.2106323242188,40.7297401428223,Islip
30000797,ITH,US,USA,North America,-76.5018768310547,42.4438705444336,Ithaca
30000806,NIP,US,USA,North America,-81.6555404663086,30.3321380615234,Jacksonville
30000807,OAJ,US,USA,North America,-77.4301376342773,34.7539558410645,Jacksonville
30000810,JHW,US,USA,North America,-79.2353286743164,42.0970039367676,Jamestown
30000839,AZO,US,USA,North America,-85.5872192382812,42.2916679382324,Kalamazoo
30000879,EYW,US,USA,North America,-81.7828216552734,24.5548896789551,Key West
30000903,TYS,US,USA,North America,-83.9216232299805,35.9606399536133,Knoxville
30000965,LAN,US,USA,North America,-84.5555572509766,42.7324981689453,Lansing
30000999,LEX,US,USA,North America,-84.5002746582031,38.0491676330566,Lexington
30001078,MHT,US,USA,North America,-71.4543914794922,42.9956703186035,Manchester
30001121,MLB,US,USA,North America,-80.6081085205078,28.0836277008057,Melbourne
30001137,MIA,US,USA,North America,-80.193885803222656,25.773889541625977,Miami
30001138,MBS,US,USA,North America,-84.2472229003906,43.6155548095703,Midland
30001204,MKG,US,USA,North America,-86.2483367919922,43.2341651916504,Muskegon
30001205,MYR,US,USA,North America,-78.8866958618164,33.6890602111816,Myrtle Beach
30001223,ACK,US,USA,North America,-70.0994567871094,41.2834548950195,Nantucket
30001245,HVN,US,USA,North America,-72.9286117553711,41.3080558776855,New Haven
30001249,NYC,US,USA,North America,-74.005805969238281,40.714630126953125,New York
30001256,PHF,US,USA,North America,-76.3451080322266,37.0295562744141,Newport News / Williamsburg / Hampton
30001268,ORF,US,USA,North America,-76.2855529785156,36.8466682434082,Norfolk
30001310,ORL,US,USA,North America,-81.3794403076172,28.5380554199219,Orlando
30001382,PHL,US,USA,North America,-75.1641693115234,39.952220916748,Philadelphia
30001391,PIT,US,USA,North America,-79.9958877563477,40.4406242370605,Pittsburgh
30001427,PWM,US,USA,North America,-70.2553405761719,43.661491394043,Portland
30001445,SFZ,US,USA,North America,-71.413330078125,41.8238906860352,Providence
30001485,RDU,US,USA,North America,-78.6386108398438,35.7720947265625,Raleigh / Durham
30001507,RIC,US,USA,North America,-77.435417175293,37.5403594970703,Richmond
30001519,ROA,US,USA,North America,-79.9416656494141,37.2708320617676,Roanoke
30001522,ROC,US,USA,North America,-77.6105117797852,43.1607398986816,Rochester
30001631,SRQ,US,USA,North America,-82.5306625366211,27.3363609313965,Sarasota / Bradenton
30001637,SVN,US,USA,North America,-81.0999984741211,32.0833320617676,Savannah
30001749,SYR,US,USA,North America,-76.1477813720703,43.0480575561523,Syracuse
30001758,TLH,US,USA,North America,-84.2808303833008,30.4380569458008,Tallahassee
30001760,TPF,US,USA,North America,-82.458610534668,27.9472217559814,Tampa
30001813,TOL,US,USA,North America,-83.5552749633789,41.663890838623,Toledo
30001927,WAS,US,USA,North America,-77.0366668701172,38.8950004577637,Washington
30001937,PBI,US,USA,North America,-80.0534515380859,26.7143096923828,West Palm Beach
30001938,HPN,US,USA,North America,-73.7072372436523,41.0677337646484,Westchester County
30001951,AVP,US,USA,North America,-75.8810195922852,41.2458686828613,Wilkes Barre / Scranton
30001956,ILM,US,USA,North America,-77.9446487426758,34.225643157959,Wilmington
90489659,,US,USA,North America,-78.9625396728516,43.0331115722656,Grand Island
30000084,ANF,CL,Chile,South America,-70.3899993896484,-23.6499996185303,Antofagasta
30000095,ARI,CL,Chile,South America,-70.3000030517578,-18.4899997711182,Arica
30000410,CCP,CL,Chile,South America,-73.0500030517578,-36.8300018310547,Concepcion
30000520,IPC,CL,Chile,South America,-109.355331420898,-27.1056652069092,Easter Island
30000785,IQQ,CL,Chile,South America,-70.1399993896484,-20.2299995422363,Iquique
30000945,LSC,CL,Chile,South America,-71.25,-29.8999996185303,La Serena
30001455,PUX,CL,Chile,South America,-72.9400024414062,-41.4700012207031,Puerto Montt
30001464,PUQ,CL,Chile,South America,-70.9300003051758,-53.1599998474121,Punta Arenas
30001618,ULC,CL,Chile,South America,-70.6399993896484,-33.4599990844727,Santiago
30001781,ZCO,CL,Chile,South America,-72.5800018310547,-38.7299995422363,Temuco
90482485,CJC,CL,Chile,South America,-68.9199981689453,-22.4500007629395,Calama
90486117,CPO,CL,Chile,South America,-70.3324737548828,-27.3598899841309,Copiapo
30001708,YYT,CA,Canada,North America,-52.7126731872559,47.5614852905273,Saint John's
30001241,NEV,KN,St Kitts and Nevis,Atlantic ocean islands,-62.5888938903809,17.152250289917,Nevis
30001709,SKB,KN,St Kitts and Nevis,Atlantic ocean islands,-62.7559051513672,17.3433799743652,St Kitts
30001712,UVF,LC,St Lucia,Atlantic ocean islands,-60.9788932800293,13.9094438552856,St Lucia
30000456,YDN,CA,Canada,North America,-100.049263000488,51.1494064331055,Dauphin
30001959,YWG,CA,Canada,North America,-97.1383972167969,49.8956489562988,Winnipeg
30000917,KJA,RU,Russia,Europe,93.0599975585938,56.0200004577637,Krasnoyarsk
90486340,NSK,RU,Russia,Europe,88.2204818725586,69.3304061889648,Norilsk
30000153,BAX,RU,Russia,Europe,83.75,53.3600006103516,Barnaul
30001280,OVB,RU,Russia,Europe,82.9300003051758,55.0400009155273,Novosibirsk
90487384,UKK,KZ,Kazakhstan,Asia,82.6177520751953,49.9614295959473,Ust-Kamenogorsk
90487387,CIT,KZ,Kazakhstan,Asia,69.5726623535156,42.3026084899902,Shymkent
30000880,KHV,RU,Russia,Europe,135.119995,48.419998,Khabarovsk
30001917,VVO,RU,Russia,Europe,131.899993,43.130001,Vladivostok
30000189,BDA,BM,Bermuda,Atlantic ocean islands,-64.7814427,32.3002674,Bermuda
30000597,FNC,PT,Portugal,Europe,-16.9097213745117,32.6511116027832,Funchal
30001430,PXO,PT,Portugal,Europe,-16.319999,33.049999,Porto Santo
30000048,ASP,AU,Australia,Australia and oceania,133.869995117188,-23.7000007629395,Alice Springs
30000125,AYQ,AU,Australia,Australia and oceania,131.080001831055,-25.3799991607666,Ayers Rock
30000455,DRW,AU,Australia,Australia and oceania,130.850006103516,-12.4300003051758,Darwin
30000476,DPO,AU,Australia,Australia and oceania,146.351287841797,-41.1754531860352,Devonport
30000725,HBA,AU,Australia,Australia and oceania,147.330230712891,-42.8827438354492,Hobart
30000975,LST,AU,Australia,Australia and oceania,147.139358520508,-41.4402809143066,Launceston
30001747,SYD,AU,Australia,Australia and oceania,151.20710754394531,-33.867137908935547,Sydney
90486496,AVV,AU,Australia,Australia and oceania,144.429992675781,-38.0849990844727,Avalon
30000067,AMS,NL,Netherlands,Europe,4.8899998664855957,52.369998931884766,Amsterdam
30000525,EIN,NL,Netherlands,Europe,5.46999979019165,51.439998626709,Eindhoven
30000541,ENS,NL,Netherlands,Europe,6.8899998664856,52.2200012207031,Enschede
30000663,GRQ,NL,Netherlands,Europe,6.56775808334351,53.2148818969727,Groningen
30001053,MST,NL,Netherlands,Europe,5.69000005722046,50.8499984741211,Maastricht
30001540,RTM,NL,Netherlands,Europe,4.47074794769287,51.9226226806641,Rotterdam
90484026,UTR,NL,Netherlands,Europe,5.12274789810181,52.0912628173828,Utrecht
90498736,DHR,NL,Netherlands,Europe,4.76022291183472,52.9567489624023,Den Helder
30000272,BUH,RO,Romania,Europe,26.100000381469727,44.439998626708984,Bucharest
30000388,CLJ,RO,Romania,Europe,23.599319458007812,46.777198791503906,Cluj Napoca
30000412,CND,RO,Romania,Europe,28.6382675170898,44.17333984375,Constanta
30000757,IAS,RO,Romania,Europe,27.5903606414795,47.1568908691406,Iasi
30001303,OMR,RO,Romania,Europe,21.9200000762939,47.0699996948242,Oradea
30001803,TSR,RO,Romania,Europe,21.229999542236328,45.7599983215332,Timisoara
30001808,TGM,RO,Romania,Europe,24.567150115966797,46.542770385742188,Tirgu Mures
80471381,ARW,RO,Romania,Europe,21.3166694641113,46.1666717529297,Arad
90482011,BCM,RO,Romania,Europe,26.9200000762939,46.5800018310547,Bacau
90482233,BAY,RO,Romania,Europe,23.5799999237061,47.6599998474121,Baia Mare
90482406,BAO,RO,Romania,Europe,25.6100006103516,45.6599998474121,Brasov
90486108,SBZ,RO,Romania,Europe,24.1505928039551,45.7931060791016,Sibiu
90486494,SUJ,RO,Romania,Europe,22.8783416748047,47.7894020080566,Satu Mare
90486493,SCV,RO,Romania,Europe,26.2556076049805,47.6511650085449,Suceava
90486685,OWSO,RO,Romania,Europe,25.0744495391846,46.5960578918457,Sovata
90486687,OWCS,RO,Romania,Europe,25.8038806915283,46.3580665588379,Miercurea Ciuc
90486690,OWBS,RO,Romania,Europe,24.4930095672607,47.1337356567383,Bistria
90486691,OWDE,RO,Romania,Europe,23.9002475738525,47.1655616760254,Dej
90486692,OWDV,RO,Romania,Europe,22.9055023193359,45.8786735534668,Deva
90486693,OWDI,RO,Romania,Europe,25.497278213501,46.816349029541,Ditrau
90486694,OWGH,RO,Romania,Europe,25.6095104217529,46.7234115600586,Gheorgheni
90486695,OWHU,RO,Romania,Europe,23.0330905914307,46.8633689880371,Huedin
90486700,OWRG,RO,Romania,Europe,24.7108001708984,46.7739410400391,Reghiu
90486702,OWSG,RO,Romania,Europe,25.7868003845215,45.8633575439453,Sfantu Gheorghe
90486704,OWTP,RO,Romania,Europe,25.3524208068848,46.9240341186523,Toplita
90497790,CRA,RO,Romania,Europe,23.8133811950684,44.3245849609375,Craiova
30000622,GIB,GI,Gibraltar,Europe,-5.34999895095825,36.1399993896484,Gibraltar
30001019,LJU,SI,Slovenia,Europe,14.5100002288818,46.060001373291,Ljubljana
90485404,MBX,SI,Slovenia,Europe,15.6400003433228,46.5499992370605,Maribor
30001396,TGD,ME,Montenegro,Europe,19.2800006866455,42.4700012207031,Podgorica
30000642,GOT,SE,Sweden,Europe,11.9745597839355,57.708869934082,Gothenburg
30000683,HAD,SE,Sweden,Europe,12.8599987030029,56.6699981689453,Halmstad
30000712,AGH,SE,Sweden,Europe,12.6999998092651,56.0499992370605,Helsingborg
30000828,JKG,SE,Sweden,Europe,14.1585102081299,57.7817993164062,Jonkoping
30000843,KLR,SE,Sweden,Europe,16.3600006103516,56.6699981689453,Kalmar
30000897,KRN,SE,Sweden,Europe,20.2199993133545,67.8600006103516,Kiruna
30001012,LPI,SE,Sweden,Europe,15.6254405975342,58.4157676696777,Linkoping
30001046,LLA,SE,Sweden,Europe,22.1599998474121,65.5999984741211,Lulea
30001070,MMA,SE,Sweden,Europe,13.020000457763672,55.610000610351562,Malmo
30001309,ORB,SE,Sweden,Europe,15.2075128555298,59.2737808227539,Orebro
30001316,OSD,SE,Sweden,Europe,14.6499996185303,63.1800003051758,Ostersund
30001534,RNB,SE,Sweden,Europe,15.2799987792969,56.2099990844727,Ronneby
30001679,SFT,SE,Sweden,Europe,21.0674858093262,64.6236038208008,Skelleftea
30001729,STO,SE,Sweden,Europe,18.0699996948242,59.3300018310547,Stockholm
30001740,SDL,SE,Sweden,Europe,17.3299999237061,62.4000015258789,Sundsvall
30001862,UME,SE,Sweden,Europe,20.2580642700195,63.8286590576172,Umea
30001891,VXO,SE,Sweden,Europe,14.8091793060303,56.8769874572754,Vaxjo
30001913,VBY,SE,Sweden,Europe,18.2999992370605,57.6399993896484,Visby
90482386,BLE,SE,Sweden,Europe,15.4363021850586,60.4856033325195,Borlänge
90483074,KSD,SE,Sweden,Europe,13.5100002288818,59.3800010681152,Karlstad
90483450,NRK,SE,Sweden,Europe,16.1836071014404,58.5947036743164,Norrköping
90486065,THN,SE,Sweden,Europe,12.2884931564331,58.2837371826172,Trollhättan
90486090,AJR,SE,Sweden,Europe,19.1676139831543,65.5906524658203,Arvidsjaur
90486092,LYC,SE,Sweden,Europe,18.6704235076904,64.5952758789062,Lycksele
90486129,OER,SE,Sweden,Europe,18.7156047821045,63.2907104492188,Örnsköldsvik
90486335,VHM,SE,Sweden,Europe,16.6550674438477,64.6261215209961,Vilhelmina
90486338,OSK,SE,Sweden,Europe,16.4483585357666,57.2645683288574,Oskarshamn
90486345,SQO,SE,Sweden,Europe,17.1162948608398,65.0959854125977,Storuman
90486406,KID,SE,Sweden,Europe,14.1549158096313,56.0312194824219,Kristianstad
30001530,RRG,MU,Mauritius,Indian ocean islands,63.4281921386719,-19.7150001525879,Rodrigues Island
90486413,MRU,MU,Mauritius,Indian ocean islands,57.4548072814941,-20.2426300048828,Plaisance
30000116,AMZ,NZ,New Zealand,Australia and oceania,174.763641357422,-36.8486175537109,Auckland
30000375,CHC,NZ,New Zealand,Australia and oceania,172.639999389648,-43.5299987792969,Christchurch
30000510,DUD,NZ,New Zealand,Australia and oceania,170.503387451172,-45.8745613098145,Dunedin
30000687,HLZ,NZ,New Zealand,Australia and oceania,175.282897949219,-37.7871246337891,Hamilton
30001471,ZQN,NZ,New Zealand,Australia and oceania,168.662734985352,-45.0311050415039,Queenstown
30001935,WLG,NZ,New Zealand,Australia and oceania,175.5,-41.0,Wellington
30000721,ITO,US,USA,North America,-155.089996337891,19.7297229766846,Hilo
30000734,HNL,US,USA,North America,-157.858337402344,21.3069438934326,Honolulu
30000835,OGG,US,USA,North America,-156.470306396484,20.8948402404785,Kahului
30000864,LIH,US,USA,North America,-159.526123046875,22.0964393615723,Kauai Island
30000907,KOA,US,USA,North America,-155.996932983398,19.6399936676025,Kailua-Kona
30000017,AGA,MA,Morocco,Africa,-9.60999965667725,30.4200000762939,Agadir
30000029,AHU,MA,Morocco,Africa,-3.94,35.259998,Al Hoceima
30000323,CMN,MA,Morocco,Africa,-7.61999893188477,33.5999984741211,Casablanca
30000564,FEZ,MA,Morocco,Africa,-5.0,34.0499992370605,Fez
30001095,RAK,MA,Morocco,Africa,-8.0,31.6299991607666,Marrakech
