[{
  "id": "40000195",
  "station_code": "BNJ",
  "city_id": "30000230",
  "longitude": "7.1667",
  "latitude": "50.7667",
  "station_name": "Bonn Hbf."
}, {
  "id": "40000778",
  "station_code": "JRA",
  "city_id": "30001249",
  "longitude": "-74.0069",
  "latitude": "40.7544",
  "station_name": "New York Heliport"
}, {
  "id": "40001146",
  "station_code": "OFK",
  "city_id": "30001267",
  "longitude": "-97.435",
  "latitude": "41.9853",
  "station_name": "Karl Stefan Memorial Field"
}, {
  "id": "40001164",
  "station_code": "OPF",
  "city_id": "30001137",
  "longitude": "-80.2783",
  "latitude": "25.9069",
  "station_name": "Miami - Opa Locka Executive"
}, {
  "id": "40001622",
  "station_code": "TSS",
  "city_id": "30001249",
  "longitude": "-73.9667",
  "latitude": "40.75",
  "station_name": "East 34th St. Heliport"
}, {
  "id": "40001689",
  "station_code": "VGT",
  "city_id": "30000973",
  "longitude": "-115.1956",
  "latitude": "36.2117",
  "station_name": "North Las Vegas"
}, {
  "id": "40001860",
  "station_code": "YMX",
  "city_id": "30001179",
  "longitude": "-74.005278",
  "latitude": "45.681944",
  "station_name": "Montréal - Mirabel"
}, {
  "id": "40001948",
  "station_code": "ZBV",
  "city_id": "30001873",
  "longitude": "0.0",
  "latitude": "0.0",
  "station_name": "Beaver Creek Van Svce."
}, {
  "id": "90495182",
  "station_code": "CCB",
  "city_id": "30001302",
  "longitude": "-117.6872777",
  "latitude": "34.1113983",
  "station_name": "Cable"
}, {
  "id": "90495192",
  "station_code": "CLU",
  "city_id": "90486381",
  "longitude": "-85.8955471",
  "latitude": "39.2622735",
  "station_name": "Columbus"
}, {
  "id": "90495194",
  "station_code": "CNO",
  "city_id": "30001302",
  "longitude": "-117.6375532",
  "latitude": "33.9750135",
  "station_name": "Chino"
}, {
  "id": "90495198",
  "station_code": "CRG",
  "city_id": "30000806",
  "longitude": "-81.514256",
  "latitude": "30.3363513",
  "station_name": "Jacksonville Executive at Craig"
}, {
  "id": "90495310",
  "station_code": "MCC",
  "city_id": "30001548",
  "longitude": "-121.4007863",
  "latitude": "38.6599035",
  "station_name": "McClellan"
}, {
  "id": "90495311",
  "station_code": "MCF",
  "city_id": "30001760",
  "longitude": "-82.521214",
  "latitude": "27.849339",
  "station_name": "MacDill AFB"
}, {
  "id": "90495312",
  "station_code": "MDD",
  "city_id": "30001139",
  "longitude": "-102.1023606",
  "latitude": "32.0356775",
  "station_name": "Midland Airpark"
}, {
  "id": "90495334",
  "station_code": "MYF",
  "city_id": "30001584",
  "longitude": "-117.1411442",
  "latitude": "32.8158822",
  "station_name": "Montgomery Field"
}, {
  "id": "90495340",
  "station_code": "NGU",
  "city_id": "30001268",
  "longitude": "-76.291151046316",
  "latitude": "36.930123126103",
  "station_name": "Chambers Field"
}, {
  "id": "90495342",
  "station_code": "NIP",
  "city_id": "30000806",
  "longitude": "-81.680556",
  "latitude": "30.235834",
  "station_name": "Towers Field"
}, {
  "id": "90495356",
  "station_code": "NZY",
  "city_id": "30001584",
  "longitude": "-117.21531",
  "latitude": "32.699219",
  "station_name": "NAS"
}, {
  "id": "90495359",
  "station_code": "OKD",
  "city_id": "30001628",
  "longitude": "141.38022",
  "latitude": "43.116139",
  "station_name": "Okadama"
}, {
  "id": "90495371",
  "station_code": "POC",
  "city_id": "30001302",
  "longitude": "-117.7825582",
  "latitude": "34.0913984",
  "station_name": "Brackett Field"
}, {
  "id": "90495444",
  "station_code": "TDZ",
  "city_id": "30001813",
  "longitude": "-83.476799",
  "latitude": "41.5645872",
  "station_name": "Toledo Executive"
}, {
  "id": "90495450",
  "station_code": "TPF",
  "city_id": "30001760",
  "longitude": "-82.449166666667",
  "latitude": "27.915555555556",
  "station_name": "Peter O. Knight"
}, {
  "id": "90495467",
  "station_code": "VUO",
  "city_id": "30001426",
  "longitude": "-122.6573191",
  "latitude": "45.6212283",
  "station_name": "Pearson Airpark"
}, {
  "id": "90495522",
  "station_code": "CGS",
  "city_id": "30001927",
  "longitude": "-76.922474",
  "latitude": "38.980666",
  "station_name": "Washington - College Park"
}, {
  "id": "90495529",
  "station_code": "LSV",
  "city_id": "30000973",
  "longitude": "-115.1013899",
  "latitude": "36.199415",
  "station_name": "Nellis AFB"
}, {
  "id": "90495538",
  "station_code": "RNT",
  "city_id": "30001642",
  "longitude": "-122.2156773",
  "latitude": "47.4928776",
  "station_name": "Renton"
}, {
  "id": "90495540",
  "station_code": "TEB",
  "city_id": "30001249",
  "longitude": "-74.0604186",
  "latitude": "40.8500999",
  "station_name": "New York - Teterboro"
}, {
  "id": "40000003",
  "station_code": "AAR",
  "city_id": "30000003",
  "longitude": "10.6167",
  "latitude": "56.3",
  "station_name": "Aarhus"
}, {
  "id": "40000004",
  "station_code": "ABE",
  "city_id": "30000050",
  "longitude": "-75.4403",
  "latitude": "40.6522",
  "station_name": "Lehigh Valley"
}, {
  "id": "40000005",
  "station_code": "ABI",
  "city_id": "30000008",
  "longitude": "-99.6817",
  "latitude": "32.4111",
  "station_name": "Abilene"
}, {
  "id": "40000006",
  "station_code": "ABJ",
  "city_id": "30000007",
  "longitude": "-3.9333",
  "latitude": "5.25",
  "station_name": "Félix Houphouët Boigny"
}, {
  "id": "40000007",
  "station_code": "ABL",
  "city_id": "30000062",
  "longitude": "-157.85",
  "latitude": "67.1",
  "station_name": "Ambler"
}, {
  "id": "40000009",
  "station_code": "ABQ",
  "city_id": "30000035",
  "longitude": "-106.6092",
  "latitude": "35.0403",
  "station_name": "Albuquerque Sunport"
}, {
  "id": "40000010",
  "station_code": "ABR",
  "city_id": "30000006",
  "longitude": "-98.4217",
  "latitude": "45.4489",
  "station_name": "Aberdeen"
}, {
  "id": "40000011",
  "station_code": "ABS",
  "city_id": "30000010",
  "longitude": "31.611700057983",
  "latitude": "22.375714120606",
  "station_name": "Abu Simbel"
}, {
  "id": "40000012",
  "station_code": "ABX",
  "city_id": "30000036",
  "longitude": "146.95",
  "latitude": "-36.0667",
  "station_name": "Albury"
}, {
  "id": "40000013",
  "station_code": "ABY",
  "city_id": "30000032",
  "longitude": "-84.1944",
  "latitude": "31.5353",
  "station_name": "Southwest Georgia"
}, {
  "id": "40000014",
  "station_code": "ABZ",
  "city_id": "30000005",
  "longitude": "-2.2",
  "latitude": "57.2",
  "station_name": "Aberdeen"
}, {
  "id": "40000015",
  "station_code": "ACA",
  "city_id": "30000011",
  "longitude": "-99.75",
  "latitude": "16.75",
  "station_name": "Gen. Juan N. Álvarez"
}, {
  "id": "40000016",
  "station_code": "ACC",
  "city_id": "30000012",
  "longitude": "-0.1667",
  "latitude": "5.6",
  "station_name": "Kotoka"
}, {
  "id": "40000017",
  "station_code": "ACE",
  "city_id": "30000100",
  "longitude": "-13.6",
  "latitude": "28.95",
  "station_name": "Lanzarote"
}, {
  "id": "40000018",
  "station_code": "ACI",
  "city_id": "30000037",
  "longitude": "-2.214722",
  "latitude": "49.706111",
  "station_name": "Alderney"
}, {
  "id": "40000019",
  "station_code": "ACK",
  "city_id": "30001223",
  "longitude": "-70.06",
  "latitude": "41.2528",
  "station_name": "Nantucket Memorial"
}, {
  "id": "40000020",
  "station_code": "ACT",
  "city_id": "30001920",
  "longitude": "-97.2303",
  "latitude": "31.6111",
  "station_name": "Waco"
}, {
  "id": "40000021",
  "station_code": "ACV",
  "city_id": "30000093",
  "longitude": "-124.1086",
  "latitude": "40.9781",
  "station_name": "Arcata/Eureka"
}, {
  "id": "40000022",
  "station_code": "ACY",
  "city_id": "30000113",
  "longitude": "-74.5769",
  "latitude": "39.4575",
  "station_name": "Atlantic City"
}, {
  "id": "40000023",
  "station_code": "ADA",
  "city_id": "30000013",
  "longitude": "35.280388",
  "latitude": "36.982166",
  "station_name": "Adana Şakirpaşa"
}, {
  "id": "40000024",
  "station_code": "ADB",
  "city_id": "30000800",
  "longitude": "27.156944",
  "latitude": "38.29222",
  "station_name": "Adnan Menderes"
}, {
  "id": "40000025",
  "station_code": "ADD",
  "city_id": "30000014",
  "longitude": "38.8",
  "latitude": "8.9833",
  "station_name": "Bole"
}, {
  "id": "40000026",
  "station_code": "ADJ",
  "city_id": "30000065",
  "longitude": "35.9833",
  "latitude": "31.9667",
  "station_name": "Amman-Marka"
}, {
  "id": "40000027",
  "station_code": "ADL",
  "city_id": "30000015",
  "longitude": "138.5333",
  "latitude": "-34.95",
  "station_name": "Adelaide"
}, {
  "id": "40000028",
  "station_code": "ADQ",
  "city_id": "30000904",
  "longitude": "-152.4936",
  "latitude": "57.7497",
  "station_name": "Benny Benson"
}, {
  "id": "40000029",
  "station_code": "ADZ",
  "city_id": "30001578",
  "longitude": "-81.7",
  "latitude": "12.5833",
  "station_name": "Gustavo Rojas Pinilla"
}, {
  "id": "40000031",
  "station_code": "AES",
  "city_id": "30000002",
  "longitude": "6.1",
  "latitude": "62.5667",
  "station_name": "Ålesund, Vigra"
}, {
  "id": "40000032",
  "station_code": "AET",
  "city_id": "30000049",
  "longitude": "-152.6313604",
  "latitude": "66.5495875",
  "station_name": "Allakaket"
}, {
  "id": "40000033",
  "station_code": "AEY",
  "city_id": "30000028",
  "longitude": "-18.072703",
  "latitude": "65.659994",
  "station_name": "Akureyri"
}, {
  "id": "40000034",
  "station_code": "AGA",
  "city_id": "30000017",
  "longitude": "-9.413067",
  "latitude": "30.324997",
  "station_name": "Al Massira"
}, {
  "id": "40000035",
  "station_code": "AGB",
  "city_id": "30000117",
  "longitude": "10.9333",
  "latitude": "48.4333",
  "station_name": "Augsburg"
}, {
  "id": "40000036",
  "station_code": "AGF",
  "city_id": "30000019",
  "longitude": "0.6",
  "latitude": "44.1667",
  "station_name": "Agen - La Garenne"
}, {
  "id": "40000037",
  "station_code": "AGH",
  "city_id": "30000712",
  "longitude": "12.8667",
  "latitude": "56.3",
  "station_name": "Ängelholm-Helsingborg"
}, {
  "id": "40000038",
  "station_code": "AGP",
  "city_id": "30001068",
  "longitude": "-4.5",
  "latitude": "36.6667",
  "station_name": "Málaga-Costa del Sol"
}, {
  "id": "40000039",
  "station_code": "AGR",
  "city_id": "30000020",
  "longitude": "77.9667",
  "latitude": "27.15",
  "station_name": "Agra"
}, {
  "id": "40000040",
  "station_code": "AGS",
  "city_id": "30000118",
  "longitude": "-81.9644",
  "latitude": "33.3697",
  "station_name": "Augusta"
}, {
  "id": "40000041",
  "station_code": "AGU",
  "city_id": "30000022",
  "longitude": "-102.317858",
  "latitude": "21.705558",
  "station_name": "Lic. Jesús Terán Peredo"
}, {
  "id": "40000042",
  "station_code": "AHN",
  "city_id": "30000110",
  "longitude": "-83.3261",
  "latitude": "33.9483",
  "station_name": "Ben Epps"
}, {
  "id": "40000043",
  "station_code": "AHO",
  "city_id": "30000045",
  "longitude": "8.290772",
  "latitude": "40.632133",
  "station_name": "Alghero - Riviera del Corallo"
}, {
  "id": "40000044",
  "station_code": "AHU",
  "city_id": "30000029",
  "longitude": "-3.8394444",
  "latitude": "35.176945",
  "station_name": "Cherif Al Idrissi"
}, {
  "id": "40000045",
  "station_code": "AIA",
  "city_id": "30000051",
  "longitude": "-102.8036",
  "latitude": "42.0531",
  "station_name": "Athens"
}, {
  "id": "40000046",
  "station_code": "AIN",
  "city_id": "30001922",
  "longitude": "-160.0",
  "latitude": "70.6333",
  "station_name": "Wainwright"
}, {
  "id": "40000048",
  "station_code": "AJU",
  "city_id": "30000091",
  "longitude": "-37.0667",
  "latitude": "-10.9833",
  "station_name": "Santa Maria"
}, {
  "id": "40000049",
  "station_code": "AKJ",
  "city_id": "30000103",
  "longitude": "142.45",
  "latitude": "43.6667",
  "station_name": "Asahikawa"
}, {
  "id": "40000050",
  "station_code": "AKL",
  "city_id": "30000116",
  "longitude": "174.7833",
  "latitude": "-37.0167",
  "station_name": "Auckland"
}, {
  "id": "40000051",
  "station_code": "ALA",
  "city_id": "30000052",
  "longitude": "77.040508",
  "latitude": "43.352072",
  "station_name": "Almaty"
}, {
  "id": "40000052",
  "station_code": "ALB",
  "city_id": "30000033",
  "longitude": "-73.8028",
  "latitude": "42.7481",
  "station_name": "Albany"
}, {
  "id": "40000053",
  "station_code": "ALC",
  "city_id": "30000047",
  "longitude": "-0.5667",
  "latitude": "38.2833",
  "station_name": "Alicante-Elche"
}, {
  "id": "40000054",
  "station_code": "ALE",
  "city_id": "30000057",
  "longitude": "-103.6833",
  "latitude": "30.3833",
  "station_name": "Alpine-Casparis"
}, {
  "id": "40000055",
  "station_code": "ALF",
  "city_id": "30000058",
  "longitude": "23.3833",
  "latitude": "69.9833",
  "station_name": "Alta"
}, {
  "id": "40000056",
  "station_code": "ALG",
  "city_id": "30000046",
  "longitude": "3.2167",
  "latitude": "36.7",
  "station_name": "Houari Boumediene"
}, {
  "id": "40000057",
  "station_code": "ALM",
  "city_id": "30000030",
  "longitude": "-105.9906",
  "latitude": "32.8397",
  "station_name": "Alamogordo-White Sands"
}, {
  "id": "40000058",
  "station_code": "ALO",
  "city_id": "30001930",
  "longitude": "-92.4003",
  "latitude": "42.5569",
  "station_name": "Livingston Betsworth Field"
}, {
  "id": "40000059",
  "station_code": "ALP",
  "city_id": "30000040",
  "longitude": "37.2333",
  "latitude": "36.1833",
  "station_name": "Aleppo"
}, {
  "id": "40000060",
  "station_code": "ALS",
  "city_id": "30000031",
  "longitude": "-105.8667",
  "latitude": "37.4347",
  "station_name": "San Luis Valley"
}, {
  "id": "40000061",
  "station_code": "ALW",
  "city_id": "30001924",
  "longitude": "-118.2878",
  "latitude": "46.0944",
  "station_name": "Walla Walla"
}, {
  "id": "40000063",
  "station_code": "AMA",
  "city_id": "30000061",
  "longitude": "-101.7058",
  "latitude": "35.2192",
  "station_name": "Rick Husband Amarillo"
}, {
  "id": "40000064",
  "station_code": "AMD",
  "city_id": "30000023",
  "longitude": "72.6333",
  "latitude": "23.0667",
  "station_name": "Sardar Vallabhbhai Patel"
}, {
  "id": "40000065",
  "station_code": "AMI",
  "city_id": "30001104",
  "longitude": "116.1",
  "latitude": "-8.5667",
  "station_name": "Selaparang"
}, {
  "id": "40000066",
  "station_code": "AMM",
  "city_id": "30000065",
  "longitude": "35.993214",
  "latitude": "31.722556",
  "station_name": "Queen Alia"
}, {
  "id": "40000067",
  "station_code": "AMQ",
  "city_id": "30000063",
  "longitude": "128.0833",
  "latitude": "-3.7",
  "station_name": "Pattimura"
}, {
  "id": "40000068",
  "station_code": "AMS",
  "city_id": "30000067",
  "longitude": "4.7667",
  "latitude": "52.3",
  "station_name": "Amsterdam - Schiphol"
}, {
  "id": "40000070",
  "station_code": "ANB",
  "city_id": "30000080",
  "longitude": "-85.8581",
  "latitude": "33.5881",
  "station_name": "Anniston"
}, {
  "id": "40000071",
  "station_code": "ANC",
  "city_id": "30000069",
  "longitude": "-149.9961",
  "latitude": "61.1742",
  "station_name": "Ted Stevens Anchorage"
}, {
  "id": "40000072",
  "station_code": "ANF",
  "city_id": "30000084",
  "longitude": "-70.45",
  "latitude": "-23.4333",
  "station_name": "Andrés Sabella Gálvez"
}, {
  "id": "40000073",
  "station_code": "ANI",
  "city_id": "30000075",
  "longitude": "-159.5428",
  "latitude": "61.5814",
  "station_name": "Aniak"
}, {
  "id": "40000074",
  "station_code": "ANR",
  "city_id": "30000085",
  "longitude": "4.4667",
  "latitude": "51.1833",
  "station_name": "Antwerpen-Deurne"
}, {
  "id": "40000075",
  "station_code": "ANU",
  "city_id": "30001555",
  "longitude": "-61.792667",
  "latitude": "17.136749",
  "station_name": "V. C. Bird"
}, {
  "id": "40000076",
  "station_code": "ANV",
  "city_id": "30000086",
  "longitude": "-160.1897",
  "latitude": "62.6483",
  "station_name": "Anvik"
}, {
  "id": "40000077",
  "station_code": "AOC",
  "city_id": "30000059",
  "longitude": "12.506111",
  "latitude": "50.981667",
  "station_name": "Leipzig-Altenburg"
}, {
  "id": "40000078",
  "station_code": "AOI",
  "city_id": "30000070",
  "longitude": "13.3667",
  "latitude": "43.6167",
  "station_name": "Ancona Falconara"
}, {
  "id": "40000079",
  "station_code": "AOJ",
  "city_id": "30000087",
  "longitude": "140.7",
  "latitude": "40.7333",
  "station_name": "Aomori"
}, {
  "id": "40000080",
  "station_code": "AOK",
  "city_id": "30000856",
  "longitude": "27.146008",
  "latitude": "35.421408",
  "station_name": "Karpathos Island"
}, {
  "id": "40000081",
  "station_code": "AOO",
  "city_id": "30000060",
  "longitude": "-78.32",
  "latitude": "40.2961",
  "station_name": "Altoona-Blair"
}, {
  "id": "40000082",
  "station_code": "AOR",
  "city_id": "30000054",
  "longitude": "100.4",
  "latitude": "6.2",
  "station_name": "Sultan Abdul Halim"
}, {
  "id": "40000083",
  "station_code": "APF",
  "city_id": "30001225",
  "longitude": "-81.7753",
  "latitude": "26.1522",
  "station_name": "Naples"
}, {
  "id": "40000084",
  "station_code": "APN",
  "city_id": "30000056",
  "longitude": "-83.5603",
  "latitude": "45.0781",
  "station_name": "Alpena County"
}, {
  "id": "40000085",
  "station_code": "APW",
  "city_id": "30000088",
  "longitude": "-172.008336",
  "latitude": "-13.829969",
  "station_name": "Faleolo"
}, {
  "id": "40000086",
  "station_code": "AQJ",
  "city_id": "30000090",
  "longitude": "35.0167",
  "latitude": "29.6167",
  "station_name": "King Hussein"
}, {
  "id": "40000087",
  "station_code": "AQP",
  "city_id": "30000094",
  "longitude": "-71.583083",
  "latitude": "-16.341072",
  "station_name": "Rodríguez Ballón"
}, {
  "id": "40000088",
  "station_code": "ARH",
  "city_id": "30000096",
  "longitude": "40.716667",
  "latitude": "64.600281",
  "station_name": "Talagi"
}, {
  "id": "40000089",
  "station_code": "ARI",
  "city_id": "30000095",
  "longitude": "-70.3333",
  "latitude": "-18.35",
  "station_name": "Chacalluta"
}, {
  "id": "40000090",
  "station_code": "ARM",
  "city_id": "30000098",
  "longitude": "151.617004395",
  "latitude": "-30.5280990601",
  "station_name": "Armidale"
}, {
  "id": "40000091",
  "station_code": "ARN",
  "city_id": "30001729",
  "longitude": "17.95",
  "latitude": "59.65",
  "station_name": "Stockholm Arlanda"
}, {
  "id": "40000092",
  "station_code": "ART",
  "city_id": "30001931",
  "longitude": "-76.0217",
  "latitude": "43.9917",
  "station_name": "Watertown"
}, {
  "id": "40000093",
  "station_code": "ASD",
  "city_id": "30000071",
  "longitude": "-77.8",
  "latitude": "24.7",
  "station_name": "Andros Town"
}, {
  "id": "40000094",
  "station_code": "ASE",
  "city_id": "30000106",
  "longitude": "-106.8686",
  "latitude": "39.2231",
  "station_name": "Sardy Field"
}, {
  "id": "40000095",
  "station_code": "ASM",
  "city_id": "30000105",
  "longitude": "38.9167",
  "latitude": "15.3",
  "station_name": "Asmara"
}, {
  "id": "40000096",
  "station_code": "ASP",
  "city_id": "30000048",
  "longitude": "133.9",
  "latitude": "-23.8",
  "station_name": "Alice Springs"
}, {
  "id": "40000097",
  "station_code": "ASU",
  "city_id": "30000107",
  "longitude": "-57.5167",
  "latitude": "-25.2333",
  "station_name": "Silvio Pettirossi"
}, {
  "id": "40000098",
  "station_code": "ASW",
  "city_id": "30000108",
  "longitude": "32.819975",
  "latitude": "23.964356",
  "station_name": "Aswan Daraw"
}, {
  "id": "40000099",
  "station_code": "ATC",
  "city_id": "30000101",
  "longitude": "-75.6667",
  "latitude": "24.6333",
  "station_name": "Arthur\u0027s Town"
}, {
  "id": "40000100",
  "station_code": "ATH",
  "city_id": "30000109",
  "longitude": "23.944467",
  "latitude": "37.936358",
  "station_name": "Athens - Eleftherios Venizelos"
}, {
  "id": "40000101",
  "station_code": "ATL",
  "city_id": "30000112",
  "longitude": "-84.4267",
  "latitude": "33.6403",
  "station_name": "Atlanta Hartsfield-Jackson"
}, {
  "id": "40000102",
  "station_code": "ATW",
  "city_id": "30000089",
  "longitude": "-88.5194",
  "latitude": "44.2572",
  "station_name": "Appleton"
}, {
  "id": "40000103",
  "station_code": "ATY",
  "city_id": "30001932",
  "longitude": "-97.1544",
  "latitude": "44.9139",
  "station_name": "Watertown"
}, {
  "id": "40000104",
  "station_code": "AUA",
  "city_id": "30001308",
  "longitude": "-70.0167",
  "latitude": "12.5",
  "station_name": "Queen Beatrix"
}, {
  "id": "40000105",
  "station_code": "AUC",
  "city_id": "30000092",
  "longitude": "-70.7333",
  "latitude": "7.0667",
  "station_name": "Santiago Pérez Quiroz"
}, {
  "id": "40000106",
  "station_code": "AUG",
  "city_id": "30000119",
  "longitude": "-69.7972",
  "latitude": "44.3206",
  "station_name": "Augusta"
}, {
  "id": "40000107",
  "station_code": "AUH",
  "city_id": "30000009",
  "longitude": "54.65",
  "latitude": "24.4333",
  "station_name": "Abu Dhabi"
}, {
  "id": "40000108",
  "station_code": "AUS",
  "city_id": "30000122",
  "longitude": "-97.66987",
  "latitude": "30.19453",
  "station_name": "Austin–Bergstrom"
}, {
  "id": "40000109",
  "station_code": "AVI",
  "city_id": "30000378",
  "longitude": "-78.789617",
  "latitude": "22.027053",
  "station_name": "Máximo Gómez"
}, {
  "id": "40000110",
  "station_code": "AVL",
  "city_id": "30000104",
  "longitude": "-82.5417",
  "latitude": "35.4361",
  "station_name": "Asheville"
}, {
  "id": "40000111",
  "station_code": "AVN",
  "city_id": "30000124",
  "longitude": "4.9",
  "latitude": "43.9",
  "station_name": "Avignon-Provence"
}, {
  "id": "40000112",
  "station_code": "AVP",
  "city_id": "30001951",
  "longitude": "-75.7242",
  "latitude": "41.3381",
  "station_name": "Wilkes-Barre/Scranton"
}, {
  "id": "40000113",
  "station_code": "AXA",
  "city_id": "30001793",
  "longitude": "-63.0667",
  "latitude": "18.2",
  "station_name": "Clayton J. Lloyd"
}, {
  "id": "40000114",
  "station_code": "AYQ",
  "city_id": "30000125",
  "longitude": "130.975556",
  "latitude": "-25.186111",
  "station_name": "Ayers Rock Connellan"
}, {
  "id": "40000115",
  "station_code": "AYT",
  "city_id": "30000081",
  "longitude": "30.800461",
  "latitude": "36.898731",
  "station_name": "Antalya"
}, {
  "id": "40000116",
  "station_code": "AZO",
  "city_id": "30000839",
  "longitude": "-85.5519",
  "latitude": "42.2347",
  "station_name": "Kalamazoo/Battle Creek"
}, {
  "id": "40000117",
  "station_code": "BAH",
  "city_id": "30000130",
  "longitude": "50.6333",
  "latitude": "26.2667",
  "station_name": "Bahrain"
}, {
  "id": "40000119",
  "station_code": "BAL",
  "city_id": "30000162",
  "longitude": "41.116583",
  "latitude": "37.928969",
  "station_name": "Batman"
}, {
  "id": "40000120",
  "station_code": "BAN",
  "city_id": "30000159",
  "longitude": "20.4333",
  "latitude": "-4.3167",
  "station_name": "Basongo"
}, {
  "id": "40000121",
  "station_code": "BAQ",
  "city_id": "30000156",
  "longitude": "-74.7833",
  "latitude": "10.9",
  "station_name": "Ernesto Cortissoz"
}, {
  "id": "40000122",
  "station_code": "BAX",
  "city_id": "30000153",
  "longitude": "83.538533",
  "latitude": "53.363775",
  "station_name": "Barnaul"
}, {
  "id": "40000123",
  "station_code": "BBI",
  "city_id": "30000196",
  "longitude": "85.8167",
  "latitude": "20.25",
  "station_name": "Biju Patnaik"
}, {
  "id": "40000124",
  "station_code": "BBK",
  "city_id": "30000858",
  "longitude": "25.1667",
  "latitude": "-17.8333",
  "station_name": "Kasane"
}, {
  "id": "40000125",
  "station_code": "BBU",
  "city_id": "30000272",
  "longitude": "26.101944",
  "latitude": "44.503056",
  "station_name": "Aurel Vlaicu"
}, {
  "id": "40000126",
  "station_code": "BCD",
  "city_id": "30000126",
  "longitude": "123.01906585693",
  "latitude": "10.776144440559",
  "station_name": "Bacolod-Silay"
}, {
  "id": "40000128",
  "station_code": "BCT",
  "city_id": "30000221",
  "longitude": "-80.1072",
  "latitude": "26.3786",
  "station_name": "Boca Raton"
}, {
  "id": "40000129",
  "station_code": "BDA",
  "city_id": "30000189",
  "longitude": "-64.678703",
  "latitude": "32.364042",
  "station_name": "L.F. Wade"
}, {
  "id": "40000130",
  "station_code": "BDJ",
  "city_id": "30000146",
  "longitude": "114.75",
  "latitude": "-3.45",
  "station_name": "Syamsudin Noor"
}, {
  "id": "40000131",
  "station_code": "BDL",
  "city_id": "30000700",
  "longitude": "-72.6831",
  "latitude": "41.9386",
  "station_name": "Bradley"
}, {
  "id": "40000132",
  "station_code": "BDO",
  "city_id": "30000140",
  "longitude": "107.5833",
  "latitude": "-6.9",
  "station_name": "Husein Sastranegara"
}, {
  "id": "40000133",
  "station_code": "BDQ",
  "city_id": "30001871",
  "longitude": "73.2263031006",
  "latitude": "22.3362007141",
  "station_name": "Vadodara"
}, {
  "id": "40000134",
  "station_code": "BDR",
  "city_id": "30000256",
  "longitude": "-73.1261",
  "latitude": "41.1633",
  "station_name": "Igor I. Sikorsky Memorial"
}, {
  "id": "40000135",
  "station_code": "BDS",
  "city_id": "30000258",
  "longitude": "17.946943",
  "latitude": "40.6575",
  "station_name": "Brindisi-Salento"
}, {
  "id": "40000136",
  "station_code": "BED",
  "city_id": "30000170",
  "longitude": "-71.2889",
  "latitude": "42.4697",
  "station_name": "Laurence G. Hanscom Field"
}, {
  "id": "40000137",
  "station_code": "BEG",
  "city_id": "30000178",
  "longitude": "20.3",
  "latitude": "44.8167",
  "station_name": "Belgrade - Nikola Tesla"
}, {
  "id": "40000138",
  "station_code": "BEH",
  "city_id": "30000184",
  "longitude": "-86.4283",
  "latitude": "42.1283",
  "station_name": "Southwest Michigan"
}, {
  "id": "40000139",
  "station_code": "BEI",
  "city_id": "30000171",
  "longitude": "34.5333",
  "latitude": "9.3833",
  "station_name": "Beica"
}, {
  "id": "40000140",
  "station_code": "BEL",
  "city_id": "30000175",
  "longitude": "-48.4833",
  "latitude": "-1.3833",
  "station_name": "Val de Cans"
}, {
  "id": "40000141",
  "station_code": "BEO",
  "city_id": "30001252",
  "longitude": "151.64799499512",
  "latitude": "-33.06669998169",
  "station_name": "Lake Macquarie"
}, {
  "id": "40000143",
  "station_code": "BET",
  "city_id": "30000192",
  "longitude": "-161.8378",
  "latitude": "60.7797",
  "station_name": "Bethel"
}, {
  "id": "40000144",
  "station_code": "BEW",
  "city_id": "30000173",
  "longitude": "34.9188889",
  "latitude": "-19.7933333",
  "station_name": "Beira"
}, {
  "id": "40000145",
  "station_code": "BEY",
  "city_id": "30000174",
  "longitude": "35.4833",
  "latitude": "33.8167",
  "station_name": "Beirut - Rafic Hariri"
}, {
  "id": "40000147",
  "station_code": "BFF",
  "city_id": "30001641",
  "longitude": "-103.600498",
  "latitude": "41.8741338",
  "station_name": "William B. Heilig Field"
}, {
  "id": "40000148",
  "station_code": "BFL",
  "city_id": "30000133",
  "longitude": "-119.0567",
  "latitude": "35.4333",
  "station_name": "Meadows Field"
}, {
  "id": "40000149",
  "station_code": "BFN",
  "city_id": "30000215",
  "longitude": "26.3",
  "latitude": "-29.1",
  "station_name": "Bram Fischer"
}, {
  "id": "40000150",
  "station_code": "BFS",
  "city_id": "30000176",
  "longitude": "-6.2167",
  "latitude": "54.65",
  "station_name": "Belfast International"
}, {
  "id": "40000151",
  "station_code": "BGA",
  "city_id": "30000271",
  "longitude": "-73.184778",
  "latitude": "7.1265",
  "station_name": "Palonegro"
}, {
  "id": "40000152",
  "station_code": "BGF",
  "city_id": "30000145",
  "longitude": "18.5167",
  "latitude": "4.4",
  "station_name": "Bangui M\u0027Poko"
}, {
  "id": "40000153",
  "station_code": "BGI",
  "city_id": "30000257",
  "longitude": "-59.5",
  "latitude": "13.0667",
  "station_name": "Grantley Adams"
}, {
  "id": "40000154",
  "station_code": "BGM",
  "city_id": "30000203",
  "longitude": "-75.9794",
  "latitude": "42.2083",
  "station_name": "Edwin A. Link Field"
}, {
  "id": "40000156",
  "station_code": "BGR",
  "city_id": "30000144",
  "longitude": "-68.8281",
  "latitude": "44.8072",
  "station_name": "Bangor"
}, {
  "id": "40000158",
  "station_code": "BHB",
  "city_id": "30000148",
  "longitude": "-68.3614",
  "latitude": "44.4497",
  "station_name": "Hancock County-Bar Harbor"
}, {
  "id": "40000159",
  "station_code": "BHD",
  "city_id": "30000176",
  "longitude": "-5.8725",
  "latitude": "54.618056",
  "station_name": "George Best Belfast"
}, {
  "id": "40000160",
  "station_code": "BHI",
  "city_id": "30000129",
  "longitude": "-62.169317",
  "latitude": "-38.724967",
  "station_name": "Comandante Espora"
}, {
  "id": "40000161",
  "station_code": "BHK",
  "city_id": "30000276",
  "longitude": "64.48",
  "latitude": "39.775",
  "station_name": "Bukhara"
}, {
  "id": "40000162",
  "station_code": "BHM",
  "city_id": "30000207",
  "longitude": "-86.7533",
  "latitude": "33.5628",
  "station_name": "Birmingham-Shuttlesworth"
}, {
  "id": "40000163",
  "station_code": "BHQ",
  "city_id": "30000265",
  "longitude": "141.4667",
  "latitude": "-32.0",
  "station_name": "Broken Hill"
}, {
  "id": "40000164",
  "station_code": "BHR",
  "city_id": "30000195",
  "longitude": "84.4333",
  "latitude": "27.6833",
  "station_name": "Bharatpur"
}, {
  "id": "40000165",
  "station_code": "BHX",
  "city_id": "30000206",
  "longitude": "-1.75",
  "latitude": "52.45",
  "station_name": "Birmingham"
}, {
  "id": "40000166",
  "station_code": "BIA",
  "city_id": "30000160",
  "longitude": "9.4833",
  "latitude": "42.55",
  "station_name": "Bastia - Poretta"
}, {
  "id": "40000167",
  "station_code": "BIK",
  "city_id": "30000197",
  "longitude": "136.1167",
  "latitude": "-1.2",
  "station_name": "Frans Kaisiepo"
}, {
  "id": "40000168",
  "station_code": "BIL",
  "city_id": "30000200",
  "longitude": "-108.5436",
  "latitude": "45.8083",
  "station_name": "Billings Logan"
}, {
  "id": "40000169",
  "station_code": "BIM",
  "city_id": "30000202",
  "longitude": "-79.2667",
  "latitude": "25.7",
  "station_name": "South Bimini"
}, {
  "id": "40000171",
  "station_code": "BIQ",
  "city_id": "30000198",
  "longitude": "-1.5333",
  "latitude": "43.4667",
  "station_name": "Biarritz - Pays basque"
}, {
  "id": "40000172",
  "station_code": "BIS",
  "city_id": "30000210",
  "longitude": "-100.7478",
  "latitude": "46.7739",
  "station_name": "Bismarck"
}, {
  "id": "40000173",
  "station_code": "BJI",
  "city_id": "30000183",
  "longitude": "-94.9336",
  "latitude": "47.5092",
  "station_name": "Bemidji"
}, {
  "id": "40000174",
  "station_code": "BJL",
  "city_id": "30000147",
  "longitude": "-16.6583333",
  "latitude": "13.3444444",
  "station_name": "Yundum"
}, {
  "id": "40000175",
  "station_code": "BJV",
  "city_id": "30000223",
  "longitude": "27.664311",
  "latitude": "37.250611",
  "station_name": "Milas - Bodrum"
}, {
  "id": "40000176",
  "station_code": "BJX",
  "city_id": "30000993",
  "longitude": "-101.4833",
  "latitude": "21.0",
  "station_name": "Silao Del Bajio"
}, {
  "id": "40000177",
  "station_code": "BKI",
  "city_id": "30000913",
  "longitude": "116.05",
  "latitude": "5.9333",
  "station_name": "Kota Kinabalu"
}, {
  "id": "40000179",
  "station_code": "BKO",
  "city_id": "30000138",
  "longitude": "-7.95",
  "latitude": "12.5333",
  "station_name": "Bamako - Modibo Keita"
}, {
  "id": "40000180",
  "station_code": "BKW",
  "city_id": "30000169",
  "longitude": "-81.1239",
  "latitude": "37.7872",
  "station_name": "Raleigh County Memorial"
}, {
  "id": "40000181",
  "station_code": "BKX",
  "city_id": "30000267",
  "longitude": "-96.8167",
  "latitude": "44.3047",
  "station_name": "Brookings"
}, {
  "id": "40000182",
  "station_code": "BLA",
  "city_id": "30000150",
  "longitude": "-64.6833",
  "latitude": "10.1167",
  "station_name": "Gen. José Antonio Anzoátegui"
}, {
  "id": "40000183",
  "station_code": "BLF",
  "city_id": "30000219",
  "longitude": "-81.2075",
  "latitude": "37.2956",
  "station_name": "Mercer"
}, {
  "id": "40000184",
  "station_code": "BLI",
  "city_id": "30000181",
  "longitude": "-122.5381",
  "latitude": "48.7919",
  "station_name": "Bellingham"
}, {
  "id": "40000185",
  "station_code": "BLK",
  "city_id": "30000212",
  "longitude": "-3.0333",
  "latitude": "53.7667",
  "station_name": "Blackpool"
}, {
  "id": "40000186",
  "station_code": "BLL",
  "city_id": "30000201",
  "longitude": "9.15",
  "latitude": "55.7333",
  "station_name": "Billund"
}, {
  "id": "40000187",
  "station_code": "BLQ",
  "city_id": "30000226",
  "longitude": "11.3",
  "latitude": "44.5333",
  "station_name": "Bologna - Guglielmo Marconi"
}, {
  "id": "40000188",
  "station_code": "BLR",
  "city_id": "30000142",
  "longitude": "77.705556",
  "latitude": "13.198889",
  "station_name": "Kempegowda"
}, {
  "id": "40000189",
  "station_code": "BLZ",
  "city_id": "30000214",
  "longitude": "34.9667",
  "latitude": "-15.6833",
  "station_name": "Chileka"
}, {
  "id": "40000191",
  "station_code": "BMG",
  "city_id": "30000217",
  "longitude": "-86.6167",
  "latitude": "39.1458",
  "station_name": "Monroe"
}, {
  "id": "40000192",
  "station_code": "BMI",
  "city_id": "30000218",
  "longitude": "-88.9186",
  "latitude": "40.4789",
  "station_name": "Central Illinois"
}, {
  "id": "40000193",
  "station_code": "BNA",
  "city_id": "30001229",
  "longitude": "-86.6781",
  "latitude": "36.1244",
  "station_name": "Nashville"
}, {
  "id": "40000194",
  "station_code": "BNE",
  "city_id": "30000259",
  "longitude": "153.1175",
  "latitude": "-27.384167",
  "station_name": "Brisbane"
}, {
  "id": "40000196",
  "station_code": "BNN",
  "city_id": "30000266",
  "longitude": "12.2175",
  "latitude": "65.461111",
  "station_name": "Brønnøysund"
}, {
  "id": "40000197",
  "station_code": "BNS",
  "city_id": "30000152",
  "longitude": "-70.2167",
  "latitude": "8.6167",
  "station_name": "Barinas"
}, {
  "id": "40000198",
  "station_code": "BOD",
  "city_id": "30000231",
  "longitude": "-0.7167",
  "latitude": "44.8333",
  "station_name": "Bordeaux - Mérignac"
}, {
  "id": "40000199",
  "station_code": "BOG",
  "city_id": "30000224",
  "longitude": "-74.15",
  "latitude": "4.7",
  "station_name": "Bogota - El Dorado"
}, {
  "id": "40000200",
  "station_code": "BOH",
  "city_id": "30000239",
  "longitude": "-1.8425",
  "latitude": "50.78",
  "station_name": "Bournemouth"
}, {
  "id": "40000201",
  "station_code": "BOI",
  "city_id": "30000225",
  "longitude": "-116.225",
  "latitude": "43.565",
  "station_name": "Gowen Field"
}, {
  "id": "40000202",
  "station_code": "BOJ",
  "city_id": "30000237",
  "longitude": "27.51389",
  "latitude": "42.56889",
  "station_name": "Burgas"
}, {
  "id": "40000203",
  "station_code": "BOM",
  "city_id": "30000227",
  "longitude": "72.867919",
  "latitude": "19.088686",
  "station_name": "Chhatrapati Shivaji"
}, {
  "id": "40000204",
  "station_code": "BON",
  "city_id": "30000228",
  "longitude": "-68.268511",
  "latitude": "12.131044",
  "station_name": "Flamingo"
}, {
  "id": "40000205",
  "station_code": "BOO",
  "city_id": "30000222",
  "longitude": "14.3667",
  "latitude": "67.2667",
  "station_name": "Bodø"
}, {
  "id": "40000206",
  "station_code": "BOS",
  "city_id": "30000233",
  "longitude": "-71.005",
  "latitude": "42.3642",
  "station_name": "Boston - Logan"
}, {
  "id": "40000207",
  "station_code": "BPS",
  "city_id": "30001431",
  "longitude": "-39.080917",
  "latitude": "-16.438639",
  "station_name": "Porto Seguro"
}, {
  "id": "40000208",
  "station_code": "BPT",
  "city_id": "30000166",
  "longitude": "-94.0206",
  "latitude": "29.9506",
  "station_name": "Jack Brooks"
}, {
  "id": "40000209",
  "station_code": "BQK",
  "city_id": "30000269",
  "longitude": "-81.4661",
  "latitude": "31.2589",
  "station_name": "Brunswick Golden Isles"
}, {
  "id": "40000210",
  "station_code": "BQN",
  "city_id": "30000021",
  "longitude": "-67.1292",
  "latitude": "18.4947",
  "station_name": "Rafael Hernández"
}, {
  "id": "40000211",
  "station_code": "BRC",
  "city_id": "30001583",
  "longitude": "-71.1667",
  "latitude": "-41.15",
  "station_name": "Teniente Luis Candelaria"
}, {
  "id": "40000212",
  "station_code": "BRD",
  "city_id": "30000244",
  "longitude": "-94.1372",
  "latitude": "46.3978",
  "station_name": "Brainerd Lakes"
}, {
  "id": "40000213",
  "station_code": "BRE",
  "city_id": "30000252",
  "longitude": "8.7833",
  "latitude": "53.05",
  "station_name": "Bremen"
}, {
  "id": "40000214",
  "station_code": "BRI",
  "city_id": "30000151",
  "longitude": "16.7667",
  "latitude": "41.1333",
  "station_name": "Bari - Karol Wojtyła"
}, {
  "id": "40000215",
  "station_code": "BRL",
  "city_id": "30000280",
  "longitude": "-91.1253",
  "latitude": "40.7831",
  "station_name": "Southeast Iowa"
}, {
  "id": "40000216",
  "station_code": "BRM",
  "city_id": "30000154",
  "longitude": "-69.358619",
  "latitude": "10.042747",
  "station_name": "Jacinto Lara"
}, {
  "id": "40000217",
  "station_code": "BRN",
  "city_id": "30000190",
  "longitude": "7.5",
  "latitude": "46.9167",
  "station_name": "Bern"
}, {
  "id": "40000218",
  "station_code": "BRO",
  "city_id": "30000268",
  "longitude": "-97.4258",
  "latitude": "25.9069",
  "station_name": "Brownsville/South Padre Island"
}, {
  "id": "40000219",
  "station_code": "BRQ",
  "city_id": "30000263",
  "longitude": "16.7",
  "latitude": "49.15",
  "station_name": "Brno-Tuřany"
}, {
  "id": "40000220",
  "station_code": "BRR",
  "city_id": "30000155",
  "longitude": "-7.4333",
  "latitude": "57.0167",
  "station_name": "Barra Eoligarry"
}, {
  "id": "40000221",
  "station_code": "BRS",
  "city_id": "30000260",
  "longitude": "-2.7167",
  "latitude": "51.3833",
  "station_name": "Bristol"
}, {
  "id": "40000222",
  "station_code": "BRT",
  "city_id": "30000161",
  "longitude": "130.6333",
  "latitude": "-11.7667",
  "station_name": "Bathurst Island"
}, {
  "id": "40000223",
  "station_code": "BRU",
  "city_id": "30000270",
  "longitude": "4.5",
  "latitude": "50.9",
  "station_name": "Brussels - National"
}, {
  "id": "40000224",
  "station_code": "BRW",
  "city_id": "30000157",
  "longitude": "-156.7658",
  "latitude": "71.2853",
  "station_name": "Wiley Post-Will Rogers Memorial"
}, {
  "id": "40000225",
  "station_code": "BSB",
  "city_id": "30000248",
  "longitude": "-47.9167",
  "latitude": "-15.8667",
  "station_name": "Presidente Juscelino Kubitschek"
}, {
  "id": "40000226",
  "station_code": "BSK",
  "city_id": "30000209",
  "longitude": "5.7333",
  "latitude": "34.8",
  "station_name": "Biskra Ouakda"
}, {
  "id": "40000228",
  "station_code": "BTM",
  "city_id": "30000284",
  "longitude": "-112.4972",
  "latitude": "45.9547",
  "station_name": "Bert Mooney"
}, {
  "id": "40000229",
  "station_code": "BTR",
  "city_id": "30000163",
  "longitude": "-91.1494",
  "latitude": "30.5331",
  "station_name": "Ryan Field"
}, {
  "id": "40000230",
  "station_code": "BTS",
  "city_id": "30000249",
  "longitude": "17.212667",
  "latitude": "48.170167",
  "station_name": "Bratislava-Ivanka"
}, {
  "id": "40000231",
  "station_code": "BTU",
  "city_id": "30000204",
  "longitude": "113.020472",
  "latitude": "3.12385",
  "station_name": "Bintulu"
}, {
  "id": "40000232",
  "station_code": "BTV",
  "city_id": "30000281",
  "longitude": "-73.1525",
  "latitude": "44.4714",
  "station_name": "Burlington"
}, {
  "id": "40000233",
  "station_code": "BUD",
  "city_id": "30000273",
  "longitude": "19.2667",
  "latitude": "47.4333",
  "station_name": "Budapest - Ferenc Liszt"
}, {
  "id": "40000234",
  "station_code": "BUF",
  "city_id": "30000275",
  "longitude": "-78.7319",
  "latitude": "42.9403",
  "station_name": "Buffalo Niagara"
}, {
  "id": "40000235",
  "station_code": "BUQ",
  "city_id": "30000277",
  "longitude": "28.617869",
  "latitude": "-20.017431",
  "station_name": "Joshua Mqabuko Nkomo"
}, {
  "id": "40000237",
  "station_code": "BUZ",
  "city_id": "30000283",
  "longitude": "50.834637",
  "latitude": "28.944811",
  "station_name": "Bushehr"
}, {
  "id": "40000239",
  "station_code": "BVB",
  "city_id": "30000220",
  "longitude": "-60.690069",
  "latitude": "2.846311",
  "station_name": "Boa Vista"
}, {
  "id": "40000240",
  "station_code": "BVE",
  "city_id": "30000262",
  "longitude": "1.481944",
  "latitude": "45.041111",
  "station_name": "Brive-Vallée de la Dordogne"
}, {
  "id": "40000241",
  "station_code": "BVI",
  "city_id": "30000205",
  "longitude": "139.35",
  "latitude": "-25.9",
  "station_name": "Birdsville"
}, {
  "id": "40000242",
  "station_code": "BWA",
  "city_id": "30000194",
  "longitude": "83.41625",
  "latitude": "27.505703",
  "station_name": "Gautam Buddha"
}, {
  "id": "40000244",
  "station_code": "BWK",
  "city_id": "30000241",
  "longitude": "16.679722222222",
  "latitude": "43.285833333333",
  "station_name": "Brač"
}, {
  "id": "40000245",
  "station_code": "BWN",
  "city_id": "30000139",
  "longitude": "114.9333",
  "latitude": "4.95",
  "station_name": "Brunei"
}, {
  "id": "40000246",
  "station_code": "BXN",
  "city_id": "30000223",
  "longitude": "27.669717",
  "latitude": "37.140144",
  "station_name": "Bodrum - Imsik"
}, {
  "id": "40000247",
  "station_code": "BXU",
  "city_id": "30000285",
  "longitude": "125.4833333",
  "latitude": "8.95",
  "station_name": "Butuan Bancasi"
}, {
  "id": "40000248",
  "station_code": "BYU",
  "city_id": "30000165",
  "longitude": "11.6333",
  "latitude": "49.9833",
  "station_name": "Bindlacher Berg"
}, {
  "id": "40000249",
  "station_code": "BZE",
  "city_id": "30000179",
  "longitude": "-88.3",
  "latitude": "17.5333",
  "station_name": "Philip S. W. Goldson"
}, {
  "id": "40000250",
  "station_code": "BZG",
  "city_id": "30000286",
  "longitude": "17.977699279785",
  "latitude": "53.096801757812",
  "station_name": "Ignacy Jan Paderewski"
}, {
  "id": "40000251",
  "station_code": "BZN",
  "city_id": "30000240",
  "longitude": "-111.1528",
  "latitude": "45.7767",
  "station_name": "Gallatin Field"
}, {
  "id": "40000252",
  "station_code": "BZR",
  "city_id": "30000193",
  "longitude": "3.35",
  "latitude": "43.3167",
  "station_name": "Béziers - Cap d\u0027Agde"
}, {
  "id": "40000253",
  "station_code": "CAE",
  "city_id": "30000401",
  "longitude": "-81.1194",
  "latitude": "33.9386",
  "station_name": "Columbia"
}, {
  "id": "40000255",
  "station_code": "CAI",
  "city_id": "30000291",
  "longitude": "31.4",
  "latitude": "30.1333",
  "station_name": "Cairo"
}, {
  "id": "40000256",
  "station_code": "CAJ",
  "city_id": "30000306",
  "longitude": "-62.854431152344",
  "latitude": "6.2319889068603",
  "station_name": "Canaima"
}, {
  "id": "40000257",
  "station_code": "CAK",
  "city_id": "30000027",
  "longitude": "-81.4422",
  "latitude": "40.9161",
  "station_name": "Akron/Canton"
}, {
  "id": "40000258",
  "station_code": "CAN",
  "city_id": "30000667",
  "longitude": "113.298786",
  "latitude": "23.392436",
  "station_name": "Guangzhou Baiyun"
}, {
  "id": "40000259",
  "station_code": "CAY",
  "city_id": "30000330",
  "longitude": "-52.3667",
  "latitude": "4.8167",
  "station_name": "Cayenne - Félix Eboué"
}, {
  "id": "40000260",
  "station_code": "CBB",
  "city_id": "30000390",
  "longitude": "-66.1667",
  "latitude": "-17.4167",
  "station_name": "Jorge Wilstermann"
}, {
  "id": "40000261",
  "station_code": "CBE",
  "city_id": "30000439",
  "longitude": "-78.7608",
  "latitude": "39.6153",
  "station_name": "Greater Cumberland"
}, {
  "id": "40000262",
  "station_code": "CBG",
  "city_id": "30000301",
  "longitude": "0.1833",
  "latitude": "52.2",
  "station_name": "Cambridge"
}, {
  "id": "40000263",
  "station_code": "CBL",
  "city_id": "30000380",
  "longitude": "-63.5333",
  "latitude": "8.1333",
  "station_name": "Tomás de Heres"
}, {
  "id": "40000264",
  "station_code": "CBR",
  "city_id": "30000307",
  "longitude": "149.2",
  "latitude": "-35.3167",
  "station_name": "Canberra"
}, {
  "id": "40000265",
  "station_code": "CCF",
  "city_id": "30000315",
  "longitude": "2.3167",
  "latitude": "43.2167",
  "station_name": "Salvaza"
}, {
  "id": "40000266",
  "station_code": "CCJ",
  "city_id": "30000297",
  "longitude": "75.95",
  "latitude": "11.1333",
  "station_name": "Calicut"
}, {
  "id": "40000267",
  "station_code": "CCP",
  "city_id": "30000410",
  "longitude": "-73.0667",
  "latitude": "-36.7667",
  "station_name": "Carriel Sur"
}, {
  "id": "40000268",
  "station_code": "CCS",
  "city_id": "30000312",
  "longitude": "-66.9833",
  "latitude": "10.6",
  "station_name": "Simón Bolívar"
}, {
  "id": "40000269",
  "station_code": "CCU",
  "city_id": "30000293",
  "longitude": "88.45",
  "latitude": "22.65",
  "station_name": "Netaji Subhas Chandra Bose"
}, {
  "id": "40000270",
  "station_code": "CDC",
  "city_id": "30000334",
  "longitude": "-113.0983",
  "latitude": "37.7008",
  "station_name": "Cedar City"
}, {
  "id": "40000272",
  "station_code": "CDH",
  "city_id": "30000302",
  "longitude": "-92.7633",
  "latitude": "33.6228",
  "station_name": "Harrell Field"
}, {
  "id": "40000273",
  "station_code": "CDR",
  "city_id": "30000336",
  "longitude": "-103.0953",
  "latitude": "42.8375",
  "station_name": "Chadron"
}, {
  "id": "40000274",
  "station_code": "CDV",
  "city_id": "30000416",
  "longitude": "-145.4775",
  "latitude": "60.4917",
  "station_name": "Merle K. (Mudhole) Smith"
}, {
  "id": "40000275",
  "station_code": "CDW",
  "city_id": "30000294",
  "longitude": "-74.2811",
  "latitude": "40.875",
  "station_name": "Essex"
}, {
  "id": "40000276",
  "station_code": "CEB",
  "city_id": "30000333",
  "longitude": "123.9833",
  "latitude": "10.3167",
  "station_name": "Mactan-Cebu"
}, {
  "id": "40000277",
  "station_code": "CEC",
  "city_id": "30000432",
  "longitude": "-124.2364",
  "latitude": "41.78",
  "station_name": "Jack McNamara Field"
}, {
  "id": "40000278",
  "station_code": "CEI",
  "city_id": "30000366",
  "longitude": "99.882888793945",
  "latitude": "19.952293003662",
  "station_name": "Mae Fah Luang-Chiang Rai"
}, {
  "id": "40000279",
  "station_code": "CEN",
  "city_id": "30000383",
  "longitude": "-109.83305555556",
  "latitude": "27.392777777778",
  "station_name": "Ciudad Obregón"
}, {
  "id": "40000280",
  "station_code": "CER",
  "city_id": "30000363",
  "longitude": "-1.4667",
  "latitude": "49.65",
  "station_name": "Cherbourg-Maupertus"
}, {
  "id": "40000281",
  "station_code": "CEZ",
  "city_id": "30000421",
  "longitude": "-108.6281",
  "latitude": "37.3028",
  "station_name": "Cortez"
}, {
  "id": "40000282",
  "station_code": "CFR",
  "city_id": "30000287",
  "longitude": "-0.45",
  "latitude": "49.1667",
  "station_name": "Caen-Carpiquet"
}, {
  "id": "40000283",
  "station_code": "CFU",
  "city_id": "30000417",
  "longitude": "19.9167",
  "latitude": "39.6",
  "station_name": "Corfu - Ioannis Kapodistrias"
}, {
  "id": "40000284",
  "station_code": "CGA",
  "city_id": "30000429",
  "longitude": "-133.1478",
  "latitude": "55.4786",
  "station_name": "Craig Spb."
}, {
  "id": "40000285",
  "station_code": "CGB",
  "city_id": "30000436",
  "longitude": "-56.1167",
  "latitude": "-15.65",
  "station_name": "Marechal Rondon"
}, {
  "id": "40000286",
  "station_code": "CGH",
  "city_id": "30001627",
  "longitude": "-46.65528",
  "latitude": "-23.626667",
  "station_name": "São Paulo - Congonhas"
}, {
  "id": "40000287",
  "station_code": "CGI",
  "city_id": "30000309",
  "longitude": "-89.5706",
  "latitude": "37.2253",
  "station_name": "Cape Girardeau"
}, {
  "id": "40000288",
  "station_code": "CGN",
  "city_id": "30000397",
  "longitude": "7.122917175293",
  "latitude": "50.878939723309",
  "station_name": "Cologne/Bonn"
}, {
  "id": "40000289",
  "station_code": "CGO",
  "city_id": "30001998",
  "longitude": "113.840889",
  "latitude": "34.519672",
  "station_name": "Xinzheng"
}, {
  "id": "40000290",
  "station_code": "CGP",
  "city_id": "30000373",
  "longitude": "91.8167",
  "latitude": "22.25",
  "station_name": "Shah Amanat"
}, {
  "id": "40000291",
  "station_code": "CGR",
  "city_id": "30000305",
  "longitude": "-54.6667",
  "latitude": "-20.4667",
  "station_name": "Campo Grande"
}, {
  "id": "40000292",
  "station_code": "CGX",
  "city_id": "30000368",
  "longitude": "-87.6078",
  "latitude": "41.8586",
  "station_name": "Chicago - Merrill C. Meigs Field"
}, {
  "id": "40000293",
  "station_code": "CHA",
  "city_id": "30000358",
  "longitude": "-85.2036",
  "latitude": "35.035",
  "station_name": "Lovell Field"
}, {
  "id": "40000294",
  "station_code": "CHC",
  "city_id": "30000375",
  "longitude": "172.5333",
  "latitude": "-43.4833",
  "station_name": "Christchurch"
}, {
  "id": "40000296",
  "station_code": "CHO",
  "city_id": "30000352",
  "longitude": "-78.4528",
  "latitude": "38.1386",
  "station_name": "Charlottesville–Albemarle"
}, {
  "id": "40000297",
  "station_code": "CHQ",
  "city_id": "30000344",
  "longitude": "24.15",
  "latitude": "35.5333",
  "station_name": "Chania - Daskalogiannis"
}, {
  "id": "40000298",
  "station_code": "CHS",
  "city_id": "30000347",
  "longitude": "-80.0403",
  "latitude": "32.8986",
  "station_name": "Charleston"
}, {
  "id": "40000299",
  "station_code": "CIA",
  "city_id": "30001533",
  "longitude": "12.594936",
  "latitude": "41.799361",
  "station_name": "Roma Ciampino - G. B. Pastine"
}, {
  "id": "40000300",
  "station_code": "CIC",
  "city_id": "30000370",
  "longitude": "-121.8583",
  "latitude": "39.7953",
  "station_name": "Chico"
}, {
  "id": "40000301",
  "station_code": "CID",
  "city_id": "30000335",
  "longitude": "-91.7108",
  "latitude": "41.8844",
  "station_name": "The Eastern Iowa"
}, {
  "id": "40000302",
  "station_code": "CIU",
  "city_id": "30001634",
  "longitude": "-84.4708",
  "latitude": "46.2478",
  "station_name": "Chippewa County"
}, {
  "id": "40000303",
  "station_code": "CIX",
  "city_id": "30000369",
  "longitude": "-79.8333",
  "latitude": "-6.7833",
  "station_name": "FAP Cap. José Abelardo Quiñones Gonzáles"
}, {
  "id": "40000304",
  "station_code": "CJB",
  "city_id": "30000393",
  "longitude": "77.05",
  "latitude": "11.0333",
  "station_name": "Coimbatore"
}, {
  "id": "40000305",
  "station_code": "CJS",
  "city_id": "30000382",
  "longitude": "-106.4333",
  "latitude": "31.6333",
  "station_name": "Abraham González"
}, {
  "id": "40000306",
  "station_code": "CJU",
  "city_id": "30000360",
  "longitude": "126.493028",
  "latitude": "33.511306",
  "station_name": "Jeju"
}, {
  "id": "40000307",
  "station_code": "CKB",
  "city_id": "30000384",
  "longitude": "-80.2292",
  "latitude": "39.2942",
  "station_name": "North Central West Virginia"
}, {
  "id": "40000308",
  "station_code": "CKS",
  "city_id": "30000313",
  "longitude": "-50.0",
  "latitude": "-6.1167",
  "station_name": "Carajás"
}, {
  "id": "40000309",
  "station_code": "CKY",
  "city_id": "30000409",
  "longitude": "-13.611961",
  "latitude": "9.576889",
  "station_name": "Conakry - Ahmed Sékou Touré"
}, {
  "id": "40000310",
  "station_code": "CLD",
  "city_id": "30000317",
  "longitude": "-117.2833",
  "latitude": "33.1333",
  "station_name": "McClellan-Palomar"
}, {
  "id": "40000311",
  "station_code": "CLE",
  "city_id": "30000386",
  "longitude": "-81.8492",
  "latitude": "41.4108",
  "station_name": "Hopkins"
}, {
  "id": "40000312",
  "station_code": "CLJ",
  "city_id": "30000388",
  "longitude": "23.686167",
  "latitude": "46.785167",
  "station_name": "Cluj-Napoca"
}, {
  "id": "40000313",
  "station_code": "CLL",
  "city_id": "30000395",
  "longitude": "-96.3636",
  "latitude": "30.5883",
  "station_name": "Easterwood"
}, {
  "id": "40000314",
  "station_code": "CLM",
  "city_id": "30001414",
  "longitude": "-123.4994",
  "latitude": "48.12",
  "station_name": "William R. Fairchild"
}, {
  "id": "40000315",
  "station_code": "CLO",
  "city_id": "30000296",
  "longitude": "-76.3833",
  "latitude": "3.55",
  "station_name": "Alfonso Bonilla Aragón"
}, {
  "id": "40000316",
  "station_code": "CLQ",
  "city_id": "30000394",
  "longitude": "-103.5833",
  "latitude": "19.2667",
  "station_name": "Lic. Miguel de la Madrid"
}, {
  "id": "40000317",
  "station_code": "CLT",
  "city_id": "30000351",
  "longitude": "-80.9431",
  "latitude": "35.2139",
  "station_name": "Charlotte Douglas"
}, {
  "id": "40000318",
  "station_code": "CLY",
  "city_id": "30000298",
  "longitude": "8.793189",
  "latitude": "42.530753",
  "station_name": "Calvi - Sainte Catherine"
}, {
  "id": "40000319",
  "station_code": "CMB",
  "city_id": "30000398",
  "longitude": "79.8833",
  "latitude": "7.1833",
  "station_name": "Colombo - Bandaranaike"
}, {
  "id": "40000320",
  "station_code": "CME",
  "city_id": "30000381",
  "longitude": "-91.8",
  "latitude": "18.6667",
  "station_name": "Ciudad del Carmen"
}, {
  "id": "40000321",
  "station_code": "CMF",
  "city_id": "30000339",
  "longitude": "5.8833",
  "latitude": "45.6333",
  "station_name": "Chambéry-Savoie"
}, {
  "id": "40000322",
  "station_code": "CMG",
  "city_id": "30000422",
  "longitude": "-57.6667",
  "latitude": "-19.0167",
  "station_name": "Corumbá"
}, {
  "id": "40000324",
  "station_code": "CMI",
  "city_id": "30000341",
  "longitude": "-88.2781",
  "latitude": "40.0392",
  "station_name": "University of Illinois Willard"
}, {
  "id": "40000325",
  "station_code": "CMN",
  "city_id": "30000323",
  "longitude": "-7.589967",
  "latitude": "33.367467",
  "station_name": "Casablanca - Mohammed V"
}, {
  "id": "40000326",
  "station_code": "CMX",
  "city_id": "30000690",
  "longitude": "-88.4889",
  "latitude": "47.1683",
  "station_name": "Houghton County Memorial"
}, {
  "id": "40000327",
  "station_code": "CND",
  "city_id": "30000412",
  "longitude": "28.488333",
  "latitude": "44.362222",
  "station_name": "Mihail Kogălniceanu"
}, {
  "id": "40000328",
  "station_code": "CNF",
  "city_id": "30000182",
  "longitude": "-43.968856",
  "latitude": "-19.63375",
  "station_name": "Tancredo Neves"
}, {
  "id": "40000329",
  "station_code": "CNM",
  "city_id": "30000318",
  "longitude": "-104.2631",
  "latitude": "32.3372",
  "station_name": "Cavern City Air Term."
}, {
  "id": "40000330",
  "station_code": "CNS",
  "city_id": "30000290",
  "longitude": "145.75",
  "latitude": "-16.8833",
  "station_name": "Cairns"
}, {
  "id": "40000331",
  "station_code": "CNX",
  "city_id": "30000365",
  "longitude": "98.9667",
  "latitude": "18.7667",
  "station_name": "Chiang Mai"
}, {
  "id": "40000332",
  "station_code": "CNY",
  "city_id": "30001154",
  "longitude": "-109.7547",
  "latitude": "38.755",
  "station_name": "Canyonlands Field"
}, {
  "id": "40000333",
  "station_code": "COK",
  "city_id": "30000391",
  "longitude": "76.391389",
  "latitude": "10.155556",
  "station_name": "Nedumbassery"
}, {
  "id": "40000334",
  "station_code": "COO",
  "city_id": "30000424",
  "longitude": "2.3833",
  "latitude": "6.35",
  "station_name": "Cotonou - Cadjehoun"
}, {
  "id": "40000335",
  "station_code": "COR",
  "city_id": "30000415",
  "longitude": "-64.2",
  "latitude": "-31.3167",
  "station_name": "Ingeniero Aeronáutico Ambrosio L.V. Taravella"
}, {
  "id": "40000336",
  "station_code": "COS",
  "city_id": "30000400",
  "longitude": "-104.7",
  "latitude": "38.8056",
  "station_name": "Colorado Springs"
}, {
  "id": "40000337",
  "station_code": "COU",
  "city_id": "30000402",
  "longitude": "-92.2194",
  "latitude": "38.8181",
  "station_name": "Columbia"
}, {
  "id": "40000338",
  "station_code": "CPC",
  "city_id": "30001594",
  "longitude": "-71.1333",
  "latitude": "-40.0833",
  "station_name": "Aviador Carlos Campos"
}, {
  "id": "40000339",
  "station_code": "CPH",
  "city_id": "30000414",
  "longitude": "12.65",
  "latitude": "55.6167",
  "station_name": "Copenhagen - Kastrup"
}, {
  "id": "40000340",
  "station_code": "CPQ",
  "city_id": "30000304",
  "longitude": "-47.1",
  "latitude": "-22.85",
  "station_name": "Campinas"
}, {
  "id": "40000341",
  "station_code": "CPR",
  "city_id": "30000324",
  "longitude": "-106.4633",
  "latitude": "42.9081",
  "station_name": "Natrona County"
}, {
  "id": "40000342",
  "station_code": "CPT",
  "city_id": "30000310",
  "longitude": "18.6",
  "latitude": "-33.9667",
  "station_name": "Cape Town"
}, {
  "id": "40000343",
  "station_code": "CRD",
  "city_id": "30000406",
  "longitude": "-67.4667",
  "latitude": "-45.7833",
  "station_name": "Gen. Enrique Mosconi"
}, {
  "id": "40000344",
  "station_code": "CRI",
  "city_id": "30000433",
  "longitude": "-74.15",
  "latitude": "22.75",
  "station_name": "Colonel Hill"
}, {
  "id": "40000346",
  "station_code": "CRP",
  "city_id": "30000420",
  "longitude": "-97.5011",
  "latitude": "27.7703",
  "station_name": "Corpus Christi"
}, {
  "id": "40000347",
  "station_code": "CRU",
  "city_id": "30000319",
  "longitude": "-61.4667",
  "latitude": "12.4833",
  "station_name": "Lauriston"
}, {
  "id": "40000348",
  "station_code": "CRW",
  "city_id": "30000348",
  "longitude": "-81.5931",
  "latitude": "38.3731",
  "station_name": "Yeager"
}, {
  "id": "40000349",
  "station_code": "CSG",
  "city_id": "30000403",
  "longitude": "-84.9386",
  "latitude": "32.5161",
  "station_name": "Columbus"
}, {
  "id": "40000350",
  "station_code": "CSX",
  "city_id": "30000343",
  "longitude": "113.219633",
  "latitude": "28.189158",
  "station_name": "Huanghua"
}, {
  "id": "40000351",
  "station_code": "CTA",
  "city_id": "30000328",
  "longitude": "15.0667",
  "latitude": "37.4667",
  "station_name": "Catania - Fontanarossa"
}, {
  "id": "40000352",
  "station_code": "CTG",
  "city_id": "30000320",
  "longitude": "-75.5167",
  "latitude": "10.45",
  "station_name": "Rafael Núñez"
}, {
  "id": "40000353",
  "station_code": "CTL",
  "city_id": "30000349",
  "longitude": "146.2667",
  "latitude": "-26.4167",
  "station_name": "Charleville"
}, {
  "id": "40000354",
  "station_code": "CTS",
  "city_id": "30001628",
  "longitude": "141.692283",
  "latitude": "42.7752",
  "station_name": "New Chitose"
}, {
  "id": "40000355",
  "station_code": "CTU",
  "city_id": "30000362",
  "longitude": "103.947086",
  "latitude": "30.578528",
  "station_name": "Shuangliu"
}, {
  "id": "40000356",
  "station_code": "CUC",
  "city_id": "30000434",
  "longitude": "-72.5167",
  "latitude": "7.9333",
  "station_name": "Camilo Daza"
}, {
  "id": "40000357",
  "station_code": "CUE",
  "city_id": "30000435",
  "longitude": "-78.984397",
  "latitude": "-2.889467",
  "station_name": "Mariscal Lamar"
}, {
  "id": "40000358",
  "station_code": "CUL",
  "city_id": "30000437",
  "longitude": "-107.474717",
  "latitude": "24.764547",
  "station_name": "Bachigualato Federal"
}, {
  "id": "40000359",
  "station_code": "CUM",
  "city_id": "30000438",
  "longitude": "-64.130472",
  "latitude": "10.450333",
  "station_name": "Antonio José de Sucre"
}, {
  "id": "40000360",
  "station_code": "CUP",
  "city_id": "30000321",
  "longitude": "-63.2667",
  "latitude": "10.6667",
  "station_name": "Gen. José Francisco Bermúdez"
}, {
  "id": "40000361",
  "station_code": "CUR",
  "city_id": "30001952",
  "longitude": "-68.9667",
  "latitude": "12.2",
  "station_name": "Curaçao"
}, {
  "id": "40000362",
  "station_code": "CUU",
  "city_id": "30000372",
  "longitude": "-105.9667",
  "latitude": "28.7",
  "station_name": "Gen. Roberto Fierro Villalobos"
}, {
  "id": "40000363",
  "station_code": "CUZ",
  "city_id": "30000442",
  "longitude": "-71.938781",
  "latitude": "-13.535722",
  "station_name": "Alejandro Velasco Astete"
}, {
  "id": "40000364",
  "station_code": "CVG",
  "city_id": "30000379",
  "longitude": "-84.6619",
  "latitude": "39.0461",
  "station_name": "Cincinnati/Northern Kentucky"
}, {
  "id": "40000365",
  "station_code": "CVN",
  "city_id": "30000387",
  "longitude": "-103.0792",
  "latitude": "34.425",
  "station_name": "Clovis"
}, {
  "id": "40000366",
  "station_code": "CWA",
  "city_id": "30001934",
  "longitude": "-89.6664",
  "latitude": "44.7783",
  "station_name": "Central Wisconsin"
}, {
  "id": "40000367",
  "station_code": "CWB",
  "city_id": "30000441",
  "longitude": "-49.1833",
  "latitude": "-25.5333",
  "station_name": "Afonso Pena"
}, {
  "id": "40000368",
  "station_code": "CWL",
  "city_id": "30000316",
  "longitude": "-3.35",
  "latitude": "51.4",
  "station_name": "Cardiff"
}, {
  "id": "40000369",
  "station_code": "CWT",
  "city_id": "30000426",
  "longitude": "148.65",
  "latitude": "-33.85",
  "station_name": "Cowra"
}, {
  "id": "40000371",
  "station_code": "CYB",
  "city_id": "30000331",
  "longitude": "-79.8833",
  "latitude": "19.6833",
  "station_name": "Charles Kirkconnell"
}, {
  "id": "40000372",
  "station_code": "CYO",
  "city_id": "30000332",
  "longitude": "-81.55",
  "latitude": "21.6167",
  "station_name": "Vilo Acuña"
}, {
  "id": "40000374",
  "station_code": "CYS",
  "city_id": "30000364",
  "longitude": "-104.8117",
  "latitude": "41.1556",
  "station_name": "Olson Field"
}, {
  "id": "40000375",
  "station_code": "CZM",
  "city_id": "30000428",
  "longitude": "-86.9333",
  "latitude": "20.5167",
  "station_name": "Cozumel"
}, {
  "id": "40000376",
  "station_code": "DAB",
  "city_id": "30000461",
  "longitude": "-81.0578",
  "latitude": "29.1797",
  "station_name": "Daytona Beach"
}, {
  "id": "40000377",
  "station_code": "DAC",
  "city_id": "30000478",
  "longitude": "90.4",
  "latitude": "23.85",
  "station_name": "Dhaka - Shahjalal"
}, {
  "id": "40000378",
  "station_code": "DAD",
  "city_id": "30000443",
  "longitude": "108.2",
  "latitude": "16.05",
  "station_name": "Da Nang"
}, {
  "id": "40000379",
  "station_code": "DAL",
  "city_id": "30000448",
  "longitude": "-96.8517",
  "latitude": "32.8469",
  "station_name": "Love Field"
}, {
  "id": "40000380",
  "station_code": "DAM",
  "city_id": "30000450",
  "longitude": "36.5167",
  "latitude": "33.4167",
  "station_name": "Damascus"
}, {
  "id": "40000381",
  "station_code": "DAN",
  "city_id": "30000452",
  "longitude": "-79.3353",
  "latitude": "36.5742",
  "station_name": "Danville"
}, {
  "id": "40000382",
  "station_code": "DAR",
  "city_id": "30000454",
  "longitude": "39.2",
  "latitude": "-6.8833",
  "station_name": "Dar Es Salaam - Julius Nyerere"
}, {
  "id": "40000383",
  "station_code": "DAY",
  "city_id": "30000460",
  "longitude": "-84.2192",
  "latitude": "39.9022",
  "station_name": "James M. Cox"
}, {
  "id": "40000384",
  "station_code": "DBO",
  "city_id": "30000503",
  "longitude": "148.5667",
  "latitude": "-32.2167",
  "station_name": "Dubbo City"
}, {
  "id": "40000385",
  "station_code": "DBQ",
  "city_id": "30000506",
  "longitude": "-90.7092",
  "latitude": "42.4028",
  "station_name": "Dubuque"
}, {
  "id": "40000386",
  "station_code": "DBV",
  "city_id": "30000505",
  "longitude": "18.268055",
  "latitude": "42.56111",
  "station_name": "Dubrovnik"
}, {
  "id": "40000387",
  "station_code": "DCA",
  "city_id": "30001927",
  "longitude": "-77.0375",
  "latitude": "38.8519",
  "station_name": "Washington - Ronald Reagan"
}, {
  "id": "40000388",
  "station_code": "DCF",
  "city_id": "30000489",
  "longitude": "-61.391859054565",
  "latitude": "15.338408736641",
  "station_name": "Cane Field"
}, {
  "id": "40000389",
  "station_code": "DDC",
  "city_id": "30000487",
  "longitude": "-99.9653",
  "latitude": "37.7631",
  "station_name": "Dodge City"
}, {
  "id": "40000390",
  "station_code": "DEB",
  "city_id": "30000463",
  "longitude": "21.615278",
  "latitude": "47.488888",
  "station_name": "Debrecen"
}, {
  "id": "40000391",
  "station_code": "DEC",
  "city_id": "30000464",
  "longitude": "-88.8656",
  "latitude": "39.8344",
  "station_name": "Decatur"
}, {
  "id": "40000392",
  "station_code": "DEL",
  "city_id": "30000468",
  "longitude": "77.1167",
  "latitude": "28.5667",
  "station_name": "Delhi - Indira Gandhi"
}, {
  "id": "40000393",
  "station_code": "DEM",
  "city_id": "30000469",
  "longitude": "34.858001708984",
  "latitude": "8.5539999008179",
  "station_name": "Dembidolo"
}, {
  "id": "40000394",
  "station_code": "DEN",
  "city_id": "30000472",
  "longitude": "-104.6669",
  "latitude": "39.8583",
  "station_name": "Denver"
}, {
  "id": "40000396",
  "station_code": "DGA",
  "city_id": "30000451",
  "longitude": "-88.230987548828",
  "latitude": "16.982509613037",
  "station_name": "Dangriga"
}, {
  "id": "40000397",
  "station_code": "DGO",
  "city_id": "30000512",
  "longitude": "-104.5333",
  "latitude": "24.1333",
  "station_name": "Guadalupe Victoria Durango"
}, {
  "id": "40000398",
  "station_code": "DHA",
  "city_id": "30000477",
  "longitude": "50.15",
  "latitude": "26.2667",
  "station_name": "King Abdulaziz"
}, {
  "id": "40000399",
  "station_code": "DHN",
  "city_id": "30000493",
  "longitude": "-85.4494",
  "latitude": "31.3211",
  "station_name": "Dothan"
}, {
  "id": "40000400",
  "station_code": "DIB",
  "city_id": "30000479",
  "longitude": "95.0167",
  "latitude": "27.4833",
  "station_name": "Dibrugarh"
}, {
  "id": "40000401",
  "station_code": "DIJ",
  "city_id": "30000481",
  "longitude": "5.0833",
  "latitude": "47.2667",
  "station_name": "Dijon-Bourgogne"
}, {
  "id": "40000402",
  "station_code": "DIY",
  "city_id": "30000484",
  "longitude": "40.2",
  "latitude": "37.9",
  "station_name": "Diyarbakır"
}, {
  "id": "40000403",
  "station_code": "DJE",
  "city_id": "30000485",
  "longitude": "10.775277",
  "latitude": "33.875",
  "station_name": "Djerba - Zarzis"
}, {
  "id": "40000404",
  "station_code": "DKR",
  "city_id": "30000445",
  "longitude": "-17.5",
  "latitude": "14.75",
  "station_name": "Dakar - Léopold Sédar Senghor"
}, {
  "id": "40000405",
  "station_code": "DLA",
  "city_id": "30000495",
  "longitude": "9.7167",
  "latitude": "4.0167",
  "station_name": "Douala"
}, {
  "id": "40000406",
  "station_code": "DLC",
  "city_id": "30000447",
  "longitude": "121.55",
  "latitude": "38.9667",
  "station_name": "Dalian Zhoushuizi"
}, {
  "id": "40000407",
  "station_code": "DLH",
  "city_id": "30000507",
  "longitude": "-92.1936",
  "latitude": "46.8419",
  "station_name": "Duluth"
}, {
  "id": "40000408",
  "station_code": "DLM",
  "city_id": "30000446",
  "longitude": "28.7925",
  "latitude": "36.713056",
  "station_name": "Dalaman"
}, {
  "id": "40000409",
  "station_code": "DME",
  "city_id": "30001189",
  "longitude": "37.899903059006",
  "latitude": "55.414497398831",
  "station_name": "Domodedovo"
}, {
  "id": "40000410",
  "station_code": "DND",
  "city_id": "30000509",
  "longitude": "-3.0167",
  "latitude": "56.45",
  "station_name": "Dundee"
}, {
  "id": "40000411",
  "station_code": "DNM",
  "city_id": "30000470",
  "longitude": "113.577003479",
  "latitude": "-25.893899917602",
  "station_name": "Denham"
}, {
  "id": "40000412",
  "station_code": "DNR",
  "city_id": "30000482",
  "longitude": "-2.08",
  "latitude": "48.587776",
  "station_name": "Dinard-Pleurtuit-Saint-Malo"
}, {
  "id": "40000413",
  "station_code": "DNV",
  "city_id": "30000453",
  "longitude": "-87.5953",
  "latitude": "40.1994",
  "station_name": "Vermilion"
}, {
  "id": "40000414",
  "station_code": "DOH",
  "city_id": "30000488",
  "longitude": "51.5667",
  "latitude": "25.2667",
  "station_name": "Doha - Hamad"
}, {
  "id": "40000415",
  "station_code": "DOK",
  "city_id": "30000491",
  "longitude": "37.75",
  "latitude": "48.0833",
  "station_name": "Donetsk Sergey Prokofiev"
}, {
  "id": "40000416",
  "station_code": "DOM",
  "city_id": "30000489",
  "longitude": "-61.3",
  "latitude": "15.547028",
  "station_name": "Douglas-Charles"
}, {
  "id": "40000417",
  "station_code": "DPL",
  "city_id": "30000483",
  "longitude": "123.35",
  "latitude": "8.6",
  "station_name": "Dipolog"
}, {
  "id": "40000418",
  "station_code": "DPO",
  "city_id": "30000476",
  "longitude": "146.4333",
  "latitude": "-41.1667",
  "station_name": "Devonport"
}, {
  "id": "40000420",
  "station_code": "DRO",
  "city_id": "30000513",
  "longitude": "-107.7536",
  "latitude": "37.1514",
  "station_name": "Durango-La Plata"
}, {
  "id": "40000421",
  "station_code": "DRS",
  "city_id": "30000497",
  "longitude": "13.7667",
  "latitude": "51.1333",
  "station_name": "Dresden"
}, {
  "id": "40000422",
  "station_code": "DRT",
  "city_id": "30000467",
  "longitude": "-100.9231",
  "latitude": "29.3717",
  "station_name": "Del Rio"
}, {
  "id": "40000423",
  "station_code": "DRW",
  "city_id": "30000455",
  "longitude": "130.8833",
  "latitude": "-12.4167",
  "station_name": "Darwin"
}, {
  "id": "40000424",
  "station_code": "DSA",
  "city_id": "30000490",
  "longitude": "-1.0054206848145",
  "latitude": "53.481814728319",
  "station_name": "Robin Hood Doncaster Sheffield"
}, {
  "id": "40000425",
  "station_code": "DSI",
  "city_id": "30000474",
  "longitude": "-86.4667",
  "latitude": "30.4",
  "station_name": "Destin Executive"
}, {
  "id": "40000426",
  "station_code": "DSM",
  "city_id": "30000473",
  "longitude": "-93.6606",
  "latitude": "41.5347",
  "station_name": "Des Moines"
}, {
  "id": "40000427",
  "station_code": "DTM",
  "city_id": "30000492",
  "longitude": "7.6167",
  "latitude": "51.5167",
  "station_name": "Dortmund"
}, {
  "id": "40000428",
  "station_code": "DTW",
  "city_id": "30000475",
  "longitude": "-83.3486",
  "latitude": "42.2119",
  "station_name": "Detroit Metropolitan Wayne"
}, {
  "id": "40000429",
  "station_code": "DUB",
  "city_id": "30000504",
  "longitude": "-6.270075",
  "latitude": "53.421333",
  "station_name": "Dublin"
}, {
  "id": "40000430",
  "station_code": "DUD",
  "city_id": "30000510",
  "longitude": "170.2",
  "latitude": "-45.9333",
  "station_name": "Dunedin"
}, {
  "id": "40000431",
  "station_code": "DUJ",
  "city_id": "30000501",
  "longitude": "-78.8986",
  "latitude": "41.1781",
  "station_name": "DuBois"
}, {
  "id": "40000432",
  "station_code": "DUQ",
  "city_id": "30000508",
  "longitude": "-123.71000289917",
  "latitude": "48.754576060583",
  "station_name": "Duncan"
}, {
  "id": "40000433",
  "station_code": "DUR",
  "city_id": "30000514",
  "longitude": "31.1166667",
  "latitude": "-29.6166667",
  "station_name": "King Shaka"
}, {
  "id": "40000434",
  "station_code": "DUS",
  "city_id": "30000516",
  "longitude": "6.75",
  "latitude": "51.2833",
  "station_name": "Düsseldorf"
}, {
  "id": "40000435",
  "station_code": "DUT",
  "city_id": "30000517",
  "longitude": "-166.545",
  "latitude": "53.8989",
  "station_name": "Unalaska"
}, {
  "id": "40000436",
  "station_code": "DVO",
  "city_id": "30000457",
  "longitude": "125.65",
  "latitude": "7.1333",
  "station_name": "Francisco Bangoy"
}, {
  "id": "40000438",
  "station_code": "EAR",
  "city_id": "30000867",
  "longitude": "-99.0067",
  "latitude": "40.7269",
  "station_name": "Kearney"
}, {
  "id": "40000440",
  "station_code": "EAT",
  "city_id": "30001936",
  "longitude": "-120.2067",
  "latitude": "47.3986",
  "station_name": "Pangborn Memorial"
}, {
  "id": "40000441",
  "station_code": "EAU",
  "city_id": "30000522",
  "longitude": "-91.485",
  "latitude": "44.865",
  "station_name": "Chippewa Valley"
}, {
  "id": "40000442",
  "station_code": "EBA",
  "city_id": "30000533",
  "longitude": "10.2333",
  "latitude": "42.7667",
  "station_name": "Marina di Campo"
}, {
  "id": "40000443",
  "station_code": "EBB",
  "city_id": "30000846",
  "longitude": "32.45",
  "latitude": "0.05",
  "station_name": "Entebbe"
}, {
  "id": "40000444",
  "station_code": "EBJ",
  "city_id": "30000546",
  "longitude": "8.55",
  "latitude": "55.5333",
  "station_name": "Esbjerg"
}, {
  "id": "40000445",
  "station_code": "EBU",
  "city_id": "30001552",
  "longitude": "4.2963886",
  "latitude": "45.540276",
  "station_name": "Saint-Étienne-Bouthéon"
}, {
  "id": "40000446",
  "station_code": "EDI",
  "city_id": "30000523",
  "longitude": "-3.35",
  "latitude": "55.95",
  "station_name": "Edinburgh"
}, {
  "id": "40000447",
  "station_code": "EEN",
  "city_id": "30000868",
  "longitude": "-72.2706",
  "latitude": "42.8983",
  "station_name": "Dillant-Hopkins"
}, {
  "id": "40000448",
  "station_code": "EFD",
  "city_id": "30000742",
  "longitude": "-95.1586",
  "latitude": "29.6072",
  "station_name": "Ellington"
}, {
  "id": "40000449",
  "station_code": "EGC",
  "city_id": "30000187",
  "longitude": "0.5186111",
  "latitude": "44.825275",
  "station_name": "Bergerac Dordogne Périgord"
}, {
  "id": "40000450",
  "station_code": "EGE",
  "city_id": "30001873",
  "longitude": "-106.9175",
  "latitude": "39.6425",
  "station_name": "Eagle County"
}, {
  "id": "40000451",
  "station_code": "EIN",
  "city_id": "30000525",
  "longitude": "5.3667",
  "latitude": "51.45",
  "station_name": "Eindhoven"
}, {
  "id": "40000452",
  "station_code": "EIS",
  "city_id": "30001818",
  "longitude": "-64.55",
  "latitude": "18.45",
  "station_name": "Terrance B. Lettsome"
}, {
  "id": "40000453",
  "station_code": "EKO",
  "city_id": "30000535",
  "longitude": "-115.7911",
  "latitude": "40.825",
  "station_name": "J.C. Harris Field"
}, {
  "id": "40000454",
  "station_code": "ELD",
  "city_id": "30000528",
  "longitude": "-92.8131",
  "latitude": "33.2208",
  "station_name": "South Arkansas at Goodwin Field"
}, {
  "id": "40000455",
  "station_code": "ELF",
  "city_id": "30000529",
  "longitude": "25.3167",
  "latitude": "13.6167",
  "station_name": "Al Fashir"
}, {
  "id": "40000456",
  "station_code": "ELH",
  "city_id": "30001272",
  "longitude": "-76.6833",
  "latitude": "25.4833",
  "station_name": "North Eleuthera"
}, {
  "id": "40000457",
  "station_code": "ELI",
  "city_id": "30000534",
  "longitude": "-162.27",
  "latitude": "64.6139",
  "station_name": "Elim"
}, {
  "id": "40000458",
  "station_code": "ELM",
  "city_id": "30000537",
  "longitude": "-76.8914",
  "latitude": "42.1597",
  "station_name": "Elmira/Corning"
}, {
  "id": "40000459",
  "station_code": "ELP",
  "city_id": "30000530",
  "longitude": "-106.3778",
  "latitude": "31.8067",
  "station_name": "El Paso"
}, {
  "id": "40000460",
  "station_code": "ELS",
  "city_id": "30000518",
  "longitude": "27.8167",
  "latitude": "-33.0333",
  "station_name": "East London"
}, {
  "id": "40000461",
  "station_code": "ELY",
  "city_id": "30000538",
  "longitude": "-114.8417",
  "latitude": "39.2994",
  "station_name": "Ely"
}, {
  "id": "40000462",
  "station_code": "EMA",
  "city_id": "30001277",
  "longitude": "-1.3167",
  "latitude": "52.8333",
  "station_name": "East Midlands"
}, {
  "id": "40000463",
  "station_code": "EMD",
  "city_id": "30000539",
  "longitude": "148.179000854",
  "latitude": "-23.5674991608",
  "station_name": "Emerald"
}, {
  "id": "40000464",
  "station_code": "ENA",
  "city_id": "30000872",
  "longitude": "-151.2478",
  "latitude": "60.5711",
  "station_name": "Kenai"
}, {
  "id": "40000465",
  "station_code": "ENS",
  "city_id": "30000541",
  "longitude": "6.8833",
  "latitude": "52.2667",
  "station_name": "Enschede Twente"
}, {
  "id": "40000466",
  "station_code": "EOH",
  "city_id": "30001115",
  "longitude": "-75.59056",
  "latitude": "6.2200003",
  "station_name": "Enrique Olaya Herrera"
}, {
  "id": "40000467",
  "station_code": "EPR",
  "city_id": "30000548",
  "longitude": "121.8167",
  "latitude": "-33.6833",
  "station_name": "Esperance"
}, {
  "id": "40000468",
  "station_code": "ERF",
  "city_id": "30000543",
  "longitude": "10.9667",
  "latitude": "50.9833",
  "station_name": "Erfurt-Weimar"
}, {
  "id": "40000469",
  "station_code": "ERI",
  "city_id": "30000544",
  "longitude": "-80.1761",
  "latitude": "42.0819",
  "station_name": "Tom Ridge Field"
}, {
  "id": "40000470",
  "station_code": "ERS",
  "city_id": "30001957",
  "longitude": "17.0833",
  "latitude": "-22.6167",
  "station_name": "Eros"
}, {
  "id": "40000471",
  "station_code": "ERZ",
  "city_id": "30000545",
  "longitude": "41.170166",
  "latitude": "39.956501",
  "station_name": "Erzurum"
}, {
  "id": "40000472",
  "station_code": "ESB",
  "city_id": "30000076",
  "longitude": "32.995083",
  "latitude": "40.128082",
  "station_name": "Ankara - Esenboğa"
}, {
  "id": "40000473",
  "station_code": "ESC",
  "city_id": "30000547",
  "longitude": "-87.0944",
  "latitude": "45.7217",
  "station_name": "Delta"
}, {
  "id": "40000474",
  "station_code": "ESD",
  "city_id": "30000521",
  "longitude": "-122.9167",
  "latitude": "48.7",
  "station_name": "Orcas Island"
}, {
  "id": "40000475",
  "station_code": "ESF",
  "city_id": "30000044",
  "longitude": "-92.2956",
  "latitude": "31.3947",
  "station_name": "Esler"
}, {
  "id": "40000477",
  "station_code": "ETH",
  "city_id": "30000532",
  "longitude": "34.9667",
  "latitude": "29.5667",
  "station_name": "J. Hozman"
}, {
  "id": "40000478",
  "station_code": "ETZ",
  "city_id": "30001134",
  "longitude": "6.25",
  "latitude": "48.9833",
  "station_name": "Metz-Nancy-Lorraine"
}, {
  "id": "40000479",
  "station_code": "EUG",
  "city_id": "30000550",
  "longitude": "-123.2186",
  "latitude": "44.1231",
  "station_name": "Mahlon Sweet Field"
}, {
  "id": "40000480",
  "station_code": "EUN",
  "city_id": "30000948",
  "longitude": "-13.219167",
  "latitude": "27.151667",
  "station_name": "Hassan I"
}, {
  "id": "40000481",
  "station_code": "EVE",
  "city_id": "30000699",
  "longitude": "16.6833",
  "latitude": "68.5",
  "station_name": "Evenes"
}, {
  "id": "40000482",
  "station_code": "EVN",
  "city_id": "30001983",
  "longitude": "44.4022222",
  "latitude": "40.1525",
  "station_name": "Zvartnots"
}, {
  "id": "40000483",
  "station_code": "EVV",
  "city_id": "30000551",
  "longitude": "-87.5306",
  "latitude": "38.0378",
  "station_name": "Evansville"
}, {
  "id": "40000484",
  "station_code": "EWB",
  "city_id": "30001242",
  "longitude": "-70.9567",
  "latitude": "41.6761",
  "station_name": "New Bedford"
}, {
  "id": "40000485",
  "station_code": "EWN",
  "city_id": "30001243",
  "longitude": "-77.0428",
  "latitude": "35.0728",
  "station_name": "Coastal Carolina"
}, {
  "id": "40000487",
  "station_code": "EXT",
  "city_id": "30000554",
  "longitude": "-3.4167",
  "latitude": "50.7333",
  "station_name": "Exeter"
}, {
  "id": "40000488",
  "station_code": "EYW",
  "city_id": "30000879",
  "longitude": "-81.7594",
  "latitude": "24.5561",
  "station_name": "Key West"
}, {
  "id": "40000489",
  "station_code": "EZE",
  "city_id": "30000274",
  "longitude": "-58.5333",
  "latitude": "-34.8333",
  "station_name": "Ezeiza - Ministro Pistarini"
}, {
  "id": "40000490",
  "station_code": "FAE",
  "city_id": "30000555",
  "longitude": "-7.2667",
  "latitude": "62.0667",
  "station_name": "Vágar"
}, {
  "id": "40000491",
  "station_code": "FAI",
  "city_id": "30000556",
  "longitude": "-147.8586",
  "latitude": "64.8139",
  "station_name": "Fairbanks"
}, {
  "id": "40000492",
  "station_code": "FAO",
  "city_id": "30000560",
  "longitude": "-7.9667",
  "latitude": "37.0167",
  "station_name": "Faro"
}, {
  "id": "40000493",
  "station_code": "FAR",
  "city_id": "30000558",
  "longitude": "-96.8147",
  "latitude": "46.9192",
  "station_name": "Hector"
}, {
  "id": "40000494",
  "station_code": "FAT",
  "city_id": "30000591",
  "longitude": "-119.7181",
  "latitude": "36.7761",
  "station_name": "Fresno Yosemite"
}, {
  "id": "40000495",
  "station_code": "FAY",
  "city_id": "30000561",
  "longitude": "-78.8797",
  "latitude": "34.9914",
  "station_name": "Grannis Field"
}, {
  "id": "40000497",
  "station_code": "FCA",
  "city_id": "30000842",
  "longitude": "-114.255",
  "latitude": "48.3114",
  "station_name": "Glacier Park"
}, {
  "id": "40000498",
  "station_code": "FCO",
  "city_id": "30001533",
  "longitude": "12.258682250977",
  "latitude": "41.795952086983",
  "station_name": "Rome-Fiumicino - Leonardo da Vinci"
}, {
  "id": "40000499",
  "station_code": "FDF",
  "city_id": "30000575",
  "longitude": "-61.0",
  "latitude": "14.5833",
  "station_name": "Martinique - Aimé Césaire"
}, {
  "id": "40000500",
  "station_code": "FDH",
  "city_id": "30000593",
  "longitude": "9.5167",
  "latitude": "47.6667",
  "station_name": "Bodensee Friedrichshafen"
}, {
  "id": "40000501",
  "station_code": "FEZ",
  "city_id": "30000564",
  "longitude": "-4.9667",
  "latitude": "33.9333",
  "station_name": "Fez - Saïss"
}, {
  "id": "40000502",
  "station_code": "FFM",
  "city_id": "30000563",
  "longitude": "-96.1567",
  "latitude": "46.2842",
  "station_name": "Einar Mickelson Field"
}, {
  "id": "40000503",
  "station_code": "FHU",
  "city_id": "30000577",
  "longitude": "-110.3442",
  "latitude": "31.5883",
  "station_name": "Sierra Vista"
}, {
  "id": "40000504",
  "station_code": "FIH",
  "city_id": "30000893",
  "longitude": "15.4333",
  "latitude": "-4.3833",
  "station_name": "Kinshasa - N\u0027Djili"
}, {
  "id": "40000505",
  "station_code": "FKB",
  "city_id": "30000855",
  "longitude": "8.0805",
  "latitude": "48.779353",
  "station_name": "Karlsruhe/Baden-Baden"
}, {
  "id": "40000506",
  "station_code": "FKL",
  "city_id": "30000587",
  "longitude": "-79.8603",
  "latitude": "41.3778",
  "station_name": "Venango, Chess Lamberton Field"
}, {
  "id": "40000507",
  "station_code": "FLG",
  "city_id": "30000565",
  "longitude": "-111.6711",
  "latitude": "35.1383",
  "station_name": "Flagstaff Pulliam"
}, {
  "id": "40000509",
  "station_code": "FLN",
  "city_id": "30000570",
  "longitude": "-48.55",
  "latitude": "-27.6667",
  "station_name": "Florianópolis-Hercílio Luz"
}, {
  "id": "40000510",
  "station_code": "FLO",
  "city_id": "30000568",
  "longitude": "-79.7239",
  "latitude": "34.1853",
  "station_name": "Florence"
}, {
  "id": "40000511",
  "station_code": "FLR",
  "city_id": "30000567",
  "longitude": "11.2",
  "latitude": "43.8167",
  "station_name": "Firenze- Amerigo Vespucci"
}, {
  "id": "40000512",
  "station_code": "FMA",
  "city_id": "30000573",
  "longitude": "-58.2333",
  "latitude": "-26.2",
  "station_name": "El Pucú"
}, {
  "id": "40000513",
  "station_code": "FMN",
  "city_id": "30000559",
  "longitude": "-108.2297",
  "latitude": "36.7419",
  "station_name": "Four Corners"
}, {
  "id": "40000514",
  "station_code": "FMO",
  "city_id": "30001199",
  "longitude": "7.6833",
  "latitude": "52.1333",
  "station_name": "Münster Osnabrück"
}, {
  "id": "40000515",
  "station_code": "FNC",
  "city_id": "30000597",
  "longitude": "-16.774444444444",
  "latitude": "32.697777777778",
  "station_name": "Madeira - Cristiano Ronaldo"
}, {
  "id": "40000516",
  "station_code": "FNI",
  "city_id": "30001261",
  "longitude": "4.416111",
  "latitude": "43.75722",
  "station_name": "Nîmes-Alès-Camargue-Cévennes"
}, {
  "id": "40000517",
  "station_code": "FNL",
  "city_id": "30000574",
  "longitude": "-105.0111",
  "latitude": "40.4517",
  "station_name": "Fort Collins-Loveland"
}, {
  "id": "40000518",
  "station_code": "FNT",
  "city_id": "30000566",
  "longitude": "-83.7433",
  "latitude": "42.9653",
  "station_name": "Bishop"
}, {
  "id": "40000519",
  "station_code": "FOD",
  "city_id": "30000576",
  "longitude": "-94.1925",
  "latitude": "42.5514",
  "station_name": "Fort Dodge"
}, {
  "id": "40000520",
  "station_code": "FOE",
  "city_id": "30001815",
  "longitude": "-95.6639",
  "latitude": "38.9503",
  "station_name": "Topeka"
}, {
  "id": "40000521",
  "station_code": "FOR",
  "city_id": "30000585",
  "longitude": "-38.5333",
  "latitude": "-3.7833",
  "station_name": "Pinto Martins - Fortaleza"
}, {
  "id": "40000522",
  "station_code": "FPO",
  "city_id": "30000589",
  "longitude": "-78.7",
  "latitude": "26.55",
  "station_name": "Grand Bahama"
}, {
  "id": "40000523",
  "station_code": "FRA",
  "city_id": "30000586",
  "longitude": "8.5667",
  "latitude": "50.0333",
  "station_name": "Frankfurt"
}, {
  "id": "40000524",
  "station_code": "FRD",
  "city_id": "30000592",
  "longitude": "-123.0333",
  "latitude": "48.5167",
  "station_name": "Friday Harbor"
}, {
  "id": "40000525",
  "station_code": "FRL",
  "city_id": "30000572",
  "longitude": "12.07",
  "latitude": "44.194725",
  "station_name": "Luigi Ridolfi"
}, {
  "id": "40000526",
  "station_code": "FRM",
  "city_id": "30000557",
  "longitude": "-94.4156",
  "latitude": "43.6439",
  "station_name": "Fairmont"
}, {
  "id": "40000527",
  "station_code": "FRO",
  "city_id": "30000571",
  "longitude": "5.0167",
  "latitude": "61.5833",
  "station_name": "Florø"
}, {
  "id": "40000528",
  "station_code": "FRS",
  "city_id": "30000569",
  "longitude": "-89.866383",
  "latitude": "16.913819",
  "station_name": "Mundo Maya"
}, {
  "id": "40000529",
  "station_code": "FRU",
  "city_id": "30000208",
  "longitude": "74.477556",
  "latitude": "43.061306",
  "station_name": "Manas"
}, {
  "id": "40000530",
  "station_code": "FSD",
  "city_id": "30001674",
  "longitude": "-96.7417",
  "latitude": "43.5811",
  "station_name": "Joe Foss Field"
}, {
  "id": "40000531",
  "station_code": "FSM",
  "city_id": "30000582",
  "longitude": "-94.3672",
  "latitude": "35.3364",
  "station_name": "Fort Smith"
}, {
  "id": "40000532",
  "station_code": "FSP",
  "city_id": "30001719",
  "longitude": "-56.1667",
  "latitude": "46.7667",
  "station_name": "Saint-Pierre"
}, {
  "id": "40000533",
  "station_code": "FUE",
  "city_id": "30001453",
  "longitude": "-13.8667",
  "latitude": "28.45",
  "station_name": "Fuerteventura"
}, {
  "id": "40000534",
  "station_code": "FUK",
  "city_id": "30000596",
  "longitude": "130.45",
  "latitude": "33.5833",
  "station_name": "Fukuoka"
}, {
  "id": "40000535",
  "station_code": "FWA",
  "city_id": "30000584",
  "longitude": "-85.195",
  "latitude": "40.9783",
  "station_name": "Fort Wayne"
}, {
  "id": "40000536",
  "station_code": "FYV",
  "city_id": "30000562",
  "longitude": "-94.17",
  "latitude": "36.005",
  "station_name": "Drake Field"
}, {
  "id": "40000537",
  "station_code": "GAJ",
  "city_id": "30001975",
  "longitude": "140.371331",
  "latitude": "38.411894",
  "station_name": "Yamagata"
}, {
  "id": "40000538",
  "station_code": "GAL",
  "city_id": "30000601",
  "longitude": "-156.9372",
  "latitude": "64.7361",
  "station_name": "Edward G. Pitka Sr."
}, {
  "id": "40000539",
  "station_code": "GAU",
  "city_id": "30000612",
  "longitude": "91.5833",
  "latitude": "26.1",
  "station_name": "Lokpriya Gopinath Bordoloi"
}, {
  "id": "40000540",
  "station_code": "GBE",
  "city_id": "30000598",
  "longitude": "25.9167",
  "latitude": "-24.55",
  "station_name": "Sir Seretse Khama"
}, {
  "id": "40000541",
  "station_code": "GBG",
  "city_id": "30000602",
  "longitude": "-90.4311",
  "latitude": "40.9378",
  "station_name": "Galesburg"
}, {
  "id": "40000542",
  "station_code": "GCC",
  "city_id": "30000625",
  "longitude": "-105.5392",
  "latitude": "44.3489",
  "station_name": "Gillette-Campbell"
}, {
  "id": "40000543",
  "station_code": "GCI",
  "city_id": "30000672",
  "longitude": "-2.6",
  "latitude": "49.4333",
  "station_name": "Guernsey"
}, {
  "id": "40000544",
  "station_code": "GCK",
  "city_id": "30000608",
  "longitude": "-100.7242",
  "latitude": "37.9275",
  "station_name": "Garden City"
}, {
  "id": "40000545",
  "station_code": "GCM",
  "city_id": "30000647",
  "longitude": "-81.35",
  "latitude": "19.3",
  "station_name": "Owen Roberts"
}, {
  "id": "40000546",
  "station_code": "GCN",
  "city_id": "30000646",
  "longitude": "-112.1469",
  "latitude": "35.9522",
  "station_name": "Grand Canyon National Park"
}, {
  "id": "40000547",
  "station_code": "GDL",
  "city_id": "30000665",
  "longitude": "-103.3167",
  "latitude": "20.5167",
  "station_name": "Miguel Hidalgo y Costilla"
}, {
  "id": "40000548",
  "station_code": "GDN",
  "city_id": "30000613",
  "longitude": "18.4667",
  "latitude": "54.3833",
  "station_name": "Gdansk Lech Wałęsa"
}, {
  "id": "40000549",
  "station_code": "GDT",
  "city_id": "30000652",
  "longitude": "-71.1333",
  "latitude": "21.4333",
  "station_name": "JAGS McCartney"
}, {
  "id": "40000550",
  "station_code": "GDV",
  "city_id": "30000631",
  "longitude": "-104.8069",
  "latitude": "47.1386",
  "station_name": "Dawson Community"
}, {
  "id": "40000551",
  "station_code": "GDX",
  "city_id": "30001064",
  "longitude": "150.720439",
  "latitude": "59.910989",
  "station_name": "Sokol"
}, {
  "id": "40000552",
  "station_code": "GEG",
  "city_id": "30001699",
  "longitude": "-117.5336",
  "latitude": "47.6197",
  "station_name": "Spokane"
}, {
  "id": "40000555",
  "station_code": "GET",
  "city_id": "30000620",
  "longitude": "114.7",
  "latitude": "-28.8",
  "station_name": "Geraldton"
}, {
  "id": "40000556",
  "station_code": "GFK",
  "city_id": "30000648",
  "longitude": "-97.1758",
  "latitude": "47.9492",
  "station_name": "Grand Forks"
}, {
  "id": "40000557",
  "station_code": "GGG",
  "city_id": "30001029",
  "longitude": "-94.7117",
  "latitude": "32.3847",
  "station_name": "East Texas"
}, {
  "id": "40000558",
  "station_code": "GGT",
  "city_id": "30000617",
  "longitude": "-75.874843597412",
  "latitude": "23.561233522664",
  "station_name": "Exuma"
}, {
  "id": "40000559",
  "station_code": "GGW",
  "city_id": "30000629",
  "longitude": "-106.6147",
  "latitude": "48.2122",
  "station_name": "Wokal Field"
}, {
  "id": "40000560",
  "station_code": "GHB",
  "city_id": "30000643",
  "longitude": "-76.3333",
  "latitude": "25.2833",
  "station_name": "Governor\u0027s Harbour"
}, {
  "id": "40000561",
  "station_code": "GIB",
  "city_id": "30000622",
  "longitude": "-5.35",
  "latitude": "36.15",
  "station_name": "North Front"
}, {
  "id": "40000562",
  "station_code": "GIG",
  "city_id": "30001511",
  "longitude": "-43.25",
  "latitude": "-22.8167",
  "station_name": "Rio de Janeiro - Galeão"
}, {
  "id": "40000563",
  "station_code": "GJT",
  "city_id": "30000650",
  "longitude": "-108.5267",
  "latitude": "39.1222",
  "station_name": "Walker Field"
}, {
  "id": "40000564",
  "station_code": "GKA",
  "city_id": "30000640",
  "longitude": "145.4",
  "latitude": "-6.0833",
  "station_name": "Goroka"
}, {
  "id": "40000565",
  "station_code": "GLA",
  "city_id": "30000627",
  "longitude": "-4.4333",
  "latitude": "55.8667",
  "station_name": "Glasgow"
}, {
  "id": "40000566",
  "station_code": "GLD",
  "city_id": "30000638",
  "longitude": "-101.6989",
  "latitude": "39.3706",
  "station_name": "Renner Field"
}, {
  "id": "40000567",
  "station_code": "GLF",
  "city_id": "30000636",
  "longitude": "-83.1833",
  "latitude": "8.6667",
  "station_name": "Golfito"
}, {
  "id": "40000568",
  "station_code": "GLS",
  "city_id": "30000604",
  "longitude": "-94.8603",
  "latitude": "29.2653",
  "station_name": "Scholes"
}, {
  "id": "40000569",
  "station_code": "GLV",
  "city_id": "30000637",
  "longitude": "-163.0394",
  "latitude": "64.5433",
  "station_name": "Golovin"
}, {
  "id": "40000571",
  "station_code": "GND",
  "city_id": "30001707",
  "longitude": "-61.786192",
  "latitude": "12.004247",
  "station_name": "Maurice Bishop"
}, {
  "id": "40000572",
  "station_code": "GNV",
  "city_id": "30000599",
  "longitude": "-82.2717",
  "latitude": "29.69",
  "station_name": "Gainesville"
}, {
  "id": "40000573",
  "station_code": "GOA",
  "city_id": "30000615",
  "longitude": "8.8333",
  "latitude": "44.4167",
  "station_name": "Cristoforo Colombo"
}, {
  "id": "40000574",
  "station_code": "GOH",
  "city_id": "30001284",
  "longitude": "-51.678064",
  "latitude": "64.190922",
  "station_name": "Nuuk"
}, {
  "id": "40000575",
  "station_code": "GOI",
  "city_id": "30000633",
  "longitude": "73.8333",
  "latitude": "15.3833",
  "station_name": "Dabolim"
}, {
  "id": "40000576",
  "station_code": "GOJ",
  "city_id": "30001264",
  "longitude": "43.784042",
  "latitude": "56.230119",
  "station_name": "Strigino"
}, {
  "id": "40000577",
  "station_code": "GON",
  "city_id": "30000664",
  "longitude": "-72.045",
  "latitude": "41.33",
  "station_name": "Groton-New London"
}, {
  "id": "40000578",
  "station_code": "GOT",
  "city_id": "30000642",
  "longitude": "12.3",
  "latitude": "57.6667",
  "station_name": "Landvetter"
}, {
  "id": "40000579",
  "station_code": "GPA",
  "city_id": "30001358",
  "longitude": "21.425554",
  "latitude": "38.15111",
  "station_name": "Araxos"
}, {
  "id": "40000580",
  "station_code": "GPS",
  "city_id": "30000600",
  "longitude": "-90.26583",
  "latitude": "-0.4536111",
  "station_name": "Seymour"
}, {
  "id": "40000581",
  "station_code": "GPT",
  "city_id": "30000675",
  "longitude": "-89.07",
  "latitude": "30.4072",
  "station_name": "Gulfport-Biloxi"
}, {
  "id": "40000582",
  "station_code": "GRB",
  "city_id": "30000656",
  "longitude": "-88.1319",
  "latitude": "44.4858",
  "station_name": "Austin Straubel"
}, {
  "id": "40000583",
  "station_code": "GRI",
  "city_id": "30000649",
  "longitude": "-98.3086",
  "latitude": "40.9672",
  "station_name": "Central Nebraska"
}, {
  "id": "40000584",
  "station_code": "GRJ",
  "city_id": "30000616",
  "longitude": "22.3833",
  "latitude": "-34.0",
  "station_name": "George"
}, {
  "id": "40000586",
  "station_code": "GRQ",
  "city_id": "30000663",
  "longitude": "6.5833",
  "latitude": "53.1167",
  "station_name": "Groningen Eelde"
}, {
  "id": "40000587",
  "station_code": "GRR",
  "city_id": "30000651",
  "longitude": "-85.5239",
  "latitude": "42.8825",
  "station_name": "Gerald R. Ford"
}, {
  "id": "40000588",
  "station_code": "GRU",
  "city_id": "30001627",
  "longitude": "-46.481008529663",
  "latitude": "-23.430567747221",
  "station_name": "São Paulo - Guarulhos"
}, {
  "id": "40000589",
  "station_code": "GRX",
  "city_id": "30000645",
  "longitude": "-3.7833",
  "latitude": "37.1833",
  "station_name": "Granada Jaén - Federico García Lorc"
}, {
  "id": "40000590",
  "station_code": "GRZ",
  "city_id": "30000654",
  "longitude": "15.4333",
  "latitude": "47.0",
  "station_name": "Graz-Thalerhof"
}, {
  "id": "40000591",
  "station_code": "GSE",
  "city_id": "30000642",
  "longitude": "11.870278",
  "latitude": "57.774723",
  "station_name": "Göteborg"
}, {
  "id": "40000592",
  "station_code": "GSO",
  "city_id": "30000658",
  "longitude": "-79.9372",
  "latitude": "36.0975",
  "station_name": "Piedmont Triad"
}, {
  "id": "40000593",
  "station_code": "GSP",
  "city_id": "30000660",
  "longitude": "-82.2169",
  "latitude": "34.8978",
  "station_name": "Greenville-Spartanburg"
}, {
  "id": "40000594",
  "station_code": "GTF",
  "city_id": "30000655",
  "longitude": "-111.3706",
  "latitude": "47.4819",
  "station_name": "Great Falls"
}, {
  "id": "40000595",
  "station_code": "GTO",
  "city_id": "30000641",
  "longitude": "122.849858",
  "latitude": "0.637119",
  "station_name": "Jalaluddin"
}, {
  "id": "40000596",
  "station_code": "GTR",
  "city_id": "30000405",
  "longitude": "-88.5911",
  "latitude": "33.4503",
  "station_name": "Golden Triangle"
}, {
  "id": "40000597",
  "station_code": "GUA",
  "city_id": "30000668",
  "longitude": "-90.5333",
  "latitude": "14.5833",
  "station_name": "La Aurora"
}, {
  "id": "40000598",
  "station_code": "GUB",
  "city_id": "30000673",
  "longitude": "-114.02400207519",
  "latitude": "28.026100158691",
  "station_name": "Guerrero Negro"
}, {
  "id": "40000599",
  "station_code": "GUC",
  "city_id": "30000676",
  "longitude": "-106.9331",
  "latitude": "38.5339",
  "station_name": "Gunnison-Crested Butte"
}, {
  "id": "40000600",
  "station_code": "GUM",
  "city_id": "30000666",
  "longitude": "144.7958",
  "latitude": "13.4833",
  "station_name": "Antonio B. Won Pat"
}, {
  "id": "40000601",
  "station_code": "GUP",
  "city_id": "30000603",
  "longitude": "-108.7892",
  "latitude": "35.5108",
  "station_name": "Gallup"
}, {
  "id": "40000602",
  "station_code": "GUR",
  "city_id": "30000055",
  "longitude": "150.3333",
  "latitude": "-10.3167",
  "station_name": "Gurney"
}, {
  "id": "40000603",
  "station_code": "GVA",
  "city_id": "30000614",
  "longitude": "6.1167",
  "latitude": "46.2333",
  "station_name": "Geneva"
}, {
  "id": "40000604",
  "station_code": "GWD",
  "city_id": "30000677",
  "longitude": "62.3333",
  "latitude": "25.2333",
  "station_name": "Gwadar"
}, {
  "id": "40000605",
  "station_code": "GWT",
  "city_id": "30001939",
  "longitude": "8.35",
  "latitude": "54.9167",
  "station_name": "Westerland-Sylt"
}, {
  "id": "40000606",
  "station_code": "GWY",
  "city_id": "30000605",
  "longitude": "-8.9405536651611",
  "latitude": "53.300312579455",
  "station_name": "Galway"
}, {
  "id": "40000607",
  "station_code": "GXQ",
  "city_id": "30000427",
  "longitude": "-72.1167",
  "latitude": "-45.5833",
  "station_name": "Teniente Vidal"
}, {
  "id": "40000608",
  "station_code": "GYE",
  "city_id": "30000669",
  "longitude": "-79.8833",
  "latitude": "-2.15",
  "station_name": "José Joaquín de Olmedo"
}, {
  "id": "40000609",
  "station_code": "GYM",
  "city_id": "30000670",
  "longitude": "-110.9167",
  "latitude": "27.9667",
  "station_name": "Gen. José María Yáñez"
}, {
  "id": "40000610",
  "station_code": "GYY",
  "city_id": "30000609",
  "longitude": "-87.4128",
  "latitude": "41.6161",
  "station_name": "Gary-Chicago"
}, {
  "id": "40000611",
  "station_code": "HAD",
  "city_id": "30000683",
  "longitude": "12.8167",
  "latitude": "56.6833",
  "station_name": "Halmstad"
}, {
  "id": "40000613",
  "station_code": "HAK",
  "city_id": "30000679",
  "longitude": "110.45963287353",
  "latitude": "19.93672121196",
  "station_name": "Haikou Meilan"
}, {
  "id": "40000615",
  "station_code": "HAN",
  "city_id": "30000692",
  "longitude": "105.807178",
  "latitude": "21.221192",
  "station_name": "Hanoi - Nội Bài"
}, {
  "id": "40000616",
  "station_code": "HAU",
  "city_id": "30000703",
  "longitude": "5.2167",
  "latitude": "59.35",
  "station_name": "Karmøy"
}, {
  "id": "40000617",
  "station_code": "HAV",
  "city_id": "30000704",
  "longitude": "-82.4",
  "latitude": "22.9833",
  "station_name": "Havana - José Martí"
}, {
  "id": "40000618",
  "station_code": "HBA",
  "city_id": "30000725",
  "longitude": "147.5167",
  "latitude": "-42.8333",
  "station_name": "Hobart"
}, {
  "id": "40000620",
  "station_code": "HDN",
  "city_id": "30000707",
  "longitude": "-107.2175",
  "latitude": "40.4811",
  "station_name": "Yampa Valley"
}, {
  "id": "40000621",
  "station_code": "HDY",
  "city_id": "30000702",
  "longitude": "100.393946",
  "latitude": "6.931005",
  "station_name": "Hat Yai"
}, {
  "id": "40000623",
  "station_code": "HER",
  "city_id": "30000714",
  "longitude": "25.1833",
  "latitude": "35.3333",
  "station_name": "Heraklion - Nikos Kazantzakis"
}, {
  "id": "40000624",
  "station_code": "HET",
  "city_id": "30000727",
  "longitude": "111.824103",
  "latitude": "40.851422",
  "station_name": "Hohhot Baita"
}, {
  "id": "40000625",
  "station_code": "HFT",
  "city_id": "30000689",
  "longitude": "23.6667",
  "latitude": "70.6667",
  "station_name": "Hammerfest"
}, {
  "id": "40000626",
  "station_code": "HGH",
  "city_id": "30000691",
  "longitude": "120.434453",
  "latitude": "30.229503",
  "station_name": "Xiaoshan"
}, {
  "id": "40000627",
  "station_code": "HGN",
  "city_id": "30001063",
  "longitude": "97.973602",
  "latitude": "19.302287",
  "station_name": "Mae Hong Son"
}, {
  "id": "40000628",
  "station_code": "HGR",
  "city_id": "30000678",
  "longitude": "-77.7294",
  "latitude": "39.7078",
  "station_name": "Richard A. Henson Field"
}, {
  "id": "40000629",
  "station_code": "HHH",
  "city_id": "30000722",
  "longitude": "-80.7",
  "latitude": "32.2167",
  "station_name": "Hilton Head"
}, {
  "id": "40000630",
  "station_code": "HHN",
  "city_id": "30000586",
  "longitude": "7.263889",
  "latitude": "49.949722",
  "station_name": "Frankfurt-Hahn"
}, {
  "id": "40000631",
  "station_code": "HIB",
  "city_id": "30000718",
  "longitude": "-92.8389",
  "latitude": "47.3864",
  "station_name": "Range"
}, {
  "id": "40000632",
  "station_code": "HII",
  "city_id": "30000958",
  "longitude": "-114.3561",
  "latitude": "34.5681",
  "station_name": "Lake Havasu"
},